[
  {
    "lat": 13.04822,
    "lng": 77.500725,
    "priority_rank": 1,
    "violation_count": 163,
    "latent_rate": 277.078,
    "priority_score": 1.067,
    "congestion_ratio": 1.59,
    "road_weight": 0.593,
    "blindspot": true,
    "locality": "Bagalakunte",
    "ward_name": "Bagalakunte",
    "ward_no": "18"
  },
  {
    "lat": 12.989411,
    "lng": 77.519595,
    "priority_rank": 2,
    "violation_count": 24,
    "latent_rate": 263.174,
    "priority_score": 0.998,
    "congestion_ratio": 1.57,
    "road_weight": 0.575,
    "blindspot": true,
    "locality": "Vijayanagara Krishnadevaraya",
    "ward_name": "Vijayanagara Krishnadevaraya",
    "ward_no": "45"
  },
  {
    "lat": 12.926261,
    "lng": 77.551621,
    "priority_rank": 3,
    "violation_count": 323,
    "latent_rate": 225.156,
    "priority_score": 0.82,
    "congestion_ratio": 1.53,
    "road_weight": 0.533,
    "blindspot": true,
    "locality": "Vidyapeeta ward",
    "ward_name": "Vidyapeeta ward",
    "ward_no": "216"
  },
  {
    "lat": 12.910951,
    "lng": 77.64403,
    "priority_rank": 4,
    "violation_count": 149,
    "latent_rate": 263.852,
    "priority_score": 0.814,
    "congestion_ratio": 1.38,
    "road_weight": 0.375,
    "blindspot": true,
    "locality": "Agara",
    "ward_name": "Agara",
    "ward_no": "230"
  },
  {
    "lat": 12.991115,
    "lng": 77.652016,
    "priority_rank": 5,
    "violation_count": 155,
    "latent_rate": 263.531,
    "priority_score": 0.795,
    "congestion_ratio": 1.36,
    "road_weight": 0.356,
    "blindspot": true,
    "locality": "Lal Bahadur Nagar",
    "ward_name": "Lal Bahadur Nagar",
    "ward_no": "118"
  },
  {
    "lat": 12.998784,
    "lng": 77.597359,
    "priority_rank": 6,
    "violation_count": 46,
    "latent_rate": 283.589,
    "priority_score": 0.767,
    "congestion_ratio": 1.27,
    "road_weight": 0.267,
    "blindspot": true,
    "locality": "Jayamahal",
    "ward_name": "Jayamahal",
    "ward_no": "127"
  },
  {
    "lat": 13.035039,
    "lng": 77.624459,
    "priority_rank": 7,
    "violation_count": 373,
    "latent_rate": 229.311,
    "priority_score": 0.692,
    "congestion_ratio": 1.36,
    "road_weight": 0.356,
    "blindspot": true,
    "locality": "Nagavara",
    "ward_name": "Nagavara",
    "ward_no": "95"
  },
  {
    "lat": 12.959469,
    "lng": 77.527517,
    "priority_rank": 8,
    "violation_count": 680,
    "latent_rate": 224.441,
    "priority_score": 0.69,
    "congestion_ratio": 1.37,
    "road_weight": 0.372,
    "blindspot": true,
    "locality": "Attiguppe",
    "ward_name": "Attiguppe",
    "ward_no": "161"
  },
  {
    "lat": 12.926141,
    "lng": 77.585306,
    "priority_rank": 9,
    "violation_count": 425,
    "latent_rate": 206.103,
    "priority_score": 0.622,
    "congestion_ratio": 1.36,
    "road_weight": 0.356,
    "blindspot": true,
    "locality": "Byrasandra",
    "ward_name": "Byrasandra",
    "ward_no": "196"
  },
  {
    "lat": 12.896016,
    "lng": 77.635349,
    "priority_rank": 10,
    "violation_count": 99,
    "latent_rate": 152.656,
    "priority_score": 0.592,
    "congestion_ratio": 1.6,
    "road_weight": 0.6,
    "blindspot": true,
    "locality": "Rupenaagrahara",
    "ward_name": "Rupenaagrahara",
    "ward_no": "233"
  },
  {
    "lat": 12.951716,
    "lng": 77.607399,
    "priority_rank": 11,
    "violation_count": 110,
    "latent_rate": 218.15,
    "priority_score": 0.59,
    "congestion_ratio": 1.27,
    "road_weight": 0.267,
    "blindspot": true,
    "locality": "Neelasandra",
    "ward_name": "Neelasandra",
    "ward_no": "183"
  },
  {
    "lat": 12.917555,
    "lng": 77.594788,
    "priority_rank": 12,
    "violation_count": 115,
    "latent_rate": 175.008,
    "priority_score": 0.583,
    "congestion_ratio": 1.44,
    "road_weight": 0.444,
    "blindspot": true,
    "locality": "J P Nagar",
    "ward_name": "J P Nagar",
    "ward_no": "198"
  },
  {
    "lat": 13.092845,
    "lng": 77.594126,
    "priority_rank": 13,
    "violation_count": 361,
    "latent_rate": 150.185,
    "priority_score": 0.554,
    "congestion_ratio": 1.55,
    "road_weight": 0.545,
    "blindspot": true,
    "locality": "Yelahanka Satellite Town",
    "ward_name": "Yelahanka Satellite Town",
    "ward_no": "5"
  },
  {
    "lat": 12.962448,
    "lng": 77.595544,
    "priority_rank": 14,
    "violation_count": 340,
    "latent_rate": 166.596,
    "priority_score": 0.553,
    "congestion_ratio": 1.44,
    "road_weight": 0.441,
    "blindspot": true,
    "locality": "Shantala Nagar",
    "ward_name": "Shantala Nagar",
    "ward_no": "181"
  },
  {
    "lat": 12.986699,
    "lng": 77.690492,
    "priority_rank": 15,
    "violation_count": 26,
    "latent_rate": 134.866,
    "priority_score": 0.505,
    "congestion_ratio": 1.56,
    "road_weight": 0.562,
    "blindspot": true,
    "locality": "Mahadevapura",
    "ward_name": "Mahadevapura",
    "ward_no": "90"
  },
  {
    "lat": 12.895091,
    "lng": 77.598622,
    "priority_rank": 18,
    "violation_count": 168,
    "latent_rate": 148.41,
    "priority_score": 0.494,
    "congestion_ratio": 1.44,
    "road_weight": 0.444,
    "blindspot": true,
    "locality": "Vinayakanagar",
    "ward_name": "Vinayakanagar",
    "ward_no": "240"
  },
  {
    "lat": 13.084574,
    "lng": 77.48569,
    "priority_rank": 19,
    "violation_count": 19,
    "latent_rate": 182.031,
    "priority_score": 0.492,
    "congestion_ratio": 1.27,
    "road_weight": 0.267,
    "blindspot": true,
    "locality": "Outside BBMP",
    "ward_name": "Outside BBMP",
    "ward_no": "nan"
  },
  {
    "lat": 12.910361,
    "lng": 77.514679,
    "priority_rank": 23,
    "violation_count": 26,
    "latent_rate": 155.298,
    "priority_score": 0.469,
    "congestion_ratio": 1.36,
    "road_weight": 0.356,
    "blindspot": true,
    "locality": "Rajarajeshwari Nagar",
    "ward_name": "Rajarajeshwari Nagar",
    "ward_no": "49"
  },
  {
    "lat": 13.00981,
    "lng": 77.48446,
    "priority_rank": 25,
    "violation_count": 19,
    "latent_rate": 150.979,
    "priority_score": 0.456,
    "congestion_ratio": 1.36,
    "road_weight": 0.356,
    "blindspot": true,
    "locality": "Vidyamanyanagar",
    "ward_name": "Vidyamanyanagar",
    "ward_no": "29"
  },
  {
    "lat": 13.19104,
    "lng": 77.645176,
    "priority_rank": 27,
    "violation_count": 825,
    "latent_rate": 118.336,
    "priority_score": 0.451,
    "congestion_ratio": 1.58,
    "road_weight": 0.581,
    "blindspot": true,
    "locality": "Outside BBMP",
    "ward_name": "Outside BBMP",
    "ward_no": "nan"
  }
]