[
  {
    "lat": 12.964,
    "lng": 77.5768,
    "raw_lat": 12.964,
    "raw_lng": 77.5768,
    "snapped": false,
    "snap_confidence": null,
    "violation_count": 5984,
    "address": "KR Main Road, City Market Circle, Bengaluru, Karnataka. Pin-560002 (India)",
    "locality": "City Market Circle",
    "congestion_ratio": 2.19,
    "impact_score": 2.19,
    "reachability": null,
    "priority_rank": 1,
    "ward_no": "172",
    "ward_name": "Dharmaraya Swamy Temple Ward"
  },
  {
    "lat": 12.9766,
    "lng": 77.5768,
    "raw_lat": 12.9766,
    "raw_lng": 77.5768,
    "snapped": false,
    "snap_confidence": null,
    "violation_count": 4776,
    "address": "6th Main Road, Kempe Gowda Circle, Gandhi Nagar, Bengaluru, Karnataka. Pin-560009 (India)",
    "locality": "Gandhi Nagar",
    "congestion_ratio": 1.31,
    "impact_score": 1.046,
    "reachability": null,
    "priority_rank": 2,
    "ward_no": "133",
    "ward_name": "Gandhinagar"
  },
  {
    "lat": 12.9808,
    "lng": 77.6104,
    "raw_lat": 12.9808,
    "raw_lng": 77.6104,
    "snapped": false,
    "snap_confidence": null,
    "violation_count": 4654,
    "address": "Dickenson Road, Sri Nagamma Devi Circle, Sivanchetti Gardens, Bengaluru, Karnataka. Pin-560042 (India)",
    "locality": "Sivanchetti Gardens",
    "congestion_ratio": 1.31,
    "impact_score": 1.019,
    "reachability": null,
    "priority_rank": 3,
    "ward_no": "129",
    "ward_name": "Sampangiram Nagar"
  },
  {
    "lat": 12.9332,
    "lng": 77.6916,
    "raw_lat": 12.9332,
    "raw_lng": 77.6916,
    "snapped": false,
    "snap_confidence": null,
    "violation_count": 3620,
    "address": "New Horizon College Road, New Horizon College of Engineering, Kadubisanahalli, Bengaluru, Karnataka. Pin-560103 (India)",
    "locality": "Kadubisanahalli",
    "congestion_ratio": 1.03,
    "impact_score": 0.623,
    "reachability": null,
    "priority_rank": 4,
    "ward_no": "114",
    "ward_name": "Marathahalli"
  },
  {
    "lat": 13.0354,
    "lng": 77.5894,
    "raw_lat": 13.0354,
    "raw_lng": 77.5894,
    "snapped": false,
    "snap_confidence": null,
    "violation_count": 2698,
    "address": "2nd Cross Road, Vinayaka Nagar, Hebbal, Bengaluru, Karnataka. Pin-560024 (India)",
    "locality": "Hebbal",
    "congestion_ratio": 1.3,
    "impact_score": 0.586,
    "reachability": null,
    "priority_rank": 5,
    "ward_no": "70",
    "ward_name": "Hebbala"
  },
  {
    "lat": 13.0718,
    "lng": 77.588,
    "raw_lat": 13.0718,
    "raw_lng": 77.588,
    "snapped": false,
    "snap_confidence": null,
    "violation_count": 3102,
    "address": "Sahakar Nagar Road, Fortuna Acacia, Byatarayanapura, Bengaluru, Karnataka. Pin-560092 (India)",
    "locality": "Byatarayanapura",
    "congestion_ratio": 1.04,
    "impact_score": 0.539,
    "reachability": null,
    "priority_rank": 6,
    "ward_no": "11",
    "ward_name": "Byatarayanapura"
  },
  {
    "lat": 12.964,
    "lng": 77.5838,
    "raw_lat": 12.964,
    "raw_lng": 77.5838,
    "snapped": false,
    "snap_confidence": null,
    "violation_count": 1354,
    "address": "Silver Jubilee Park Road, Shoukath Mohalla, Nagartapete, Bengaluru, Karnataka. Pin-560002 (India)",
    "locality": "Nagartapete",
    "congestion_ratio": 2.27,
    "impact_score": 0.514,
    "reachability": null,
    "priority_rank": 7,
    "ward_no": "172",
    "ward_name": "Dharmaraya Swamy Temple Ward"
  },
  {
    "lat": 13.0088,
    "lng": 77.6958,
    "raw_lat": 13.0088,
    "raw_lng": 77.6958,
    "snapped": false,
    "snap_confidence": null,
    "violation_count": 1682,
    "address": "Kumbar Street, Devasandra Junction, KR Puram, Bengaluru, Karnataka. Pin-560036 (India)",
    "locality": "KR Puram",
    "congestion_ratio": 1.71,
    "impact_score": 0.481,
    "reachability": null,
    "priority_rank": 8,
    "ward_no": "86",
    "ward_name": "K R Puram"
  },
  {
    "lat": 12.999,
    "lng": 77.5502,
    "raw_lat": 12.999,
    "raw_lng": 77.5502,
    "snapped": false,
    "snap_confidence": null,
    "violation_count": 1437,
    "address": "Chord Road, Block 1, Rajaji Nagar, Bengaluru, Karnataka. Pin-560010 (India)",
    "locality": "Rajaji Nagar",
    "congestion_ratio": 1.99,
    "impact_score": 0.478,
    "reachability": null,
    "priority_rank": 9,
    "ward_no": "51",
    "ward_name": "Nagapura"
  },
  {
    "lat": 12.9766,
    "lng": 77.5782,
    "raw_lat": 12.9766,
    "raw_lng": 77.5782,
    "snapped": false,
    "snap_confidence": null,
    "violation_count": 2081,
    "address": "Y Ramachandra Road, Sri Kanakadasa Circle, Gandhi Nagar, Bengaluru, Karnataka. Pin-560009 (India)",
    "locality": "Gandhi Nagar",
    "congestion_ratio": 1.32,
    "impact_score": 0.459,
    "reachability": null,
    "priority_rank": 10,
    "ward_no": "133",
    "ward_name": "Gandhinagar"
  },
  {
    "lat": 12.9836,
    "lng": 77.6034,
    "raw_lat": 12.9836,
    "raw_lng": 77.6034,
    "snapped": false,
    "snap_confidence": null,
    "violation_count": 2956,
    "address": "Central Street, Shivaji Nagar, Bengaluru, Karnataka. Pin-560001 (India)",
    "locality": "Shivaji Nagar",
    "congestion_ratio": 0.91,
    "impact_score": 0.45,
    "reachability": null,
    "priority_rank": 11,
    "ward_no": "129",
    "ward_name": "Sampangiram Nagar"
  },
  {
    "lat": 12.9738,
    "lng": 77.5516,
    "raw_lat": 12.9738,
    "raw_lng": 77.5516,
    "snapped": false,
    "snap_confidence": null,
    "violation_count": 1988,
    "address": "G Narayana Kumar Road, Mehta Ambience, Manjunatha Nagar, Cholurpalya, Bengaluru, Karnataka. Pin-560023 (India)",
    "locality": "Cholurpalya",
    "congestion_ratio": 1.31,
    "impact_score": 0.435,
    "reachability": null,
    "priority_rank": 12,
    "ward_no": "157",
    "ward_name": "Vijayanagar"
  },
  {
    "lat": 13.0088,
    "lng": 77.5544,
    "raw_lat": 13.0088,
    "raw_lng": 77.5544,
    "snapped": false,
    "snap_confidence": null,
    "violation_count": 2093,
    "address": "80 Feet Ring Road, Dr Rajkumar Road 17th Cross Junction, Rajaji Nagar, Bengaluru, Karnataka. Pin-560010 (India)",
    "locality": "Rajaji Nagar",
    "congestion_ratio": 1.23,
    "impact_score": 0.43,
    "reachability": null,
    "priority_rank": 13,
    "ward_no": "51",
    "ward_name": "Nagapura"
  },
  {
    "lat": 12.9738,
    "lng": 77.5796,
    "raw_lat": 12.9738,
    "raw_lng": 77.5796,
    "snapped": false,
    "snap_confidence": null,
    "violation_count": 1914,
    "address": "Kempegowda Road, Kempegowda Extension, Chickpete, Bengaluru, Karnataka. Pin-560009 (India)",
    "locality": "Chickpete",
    "congestion_ratio": 1.23,
    "impact_score": 0.393,
    "reachability": null,
    "priority_rank": 14,
    "ward_no": "133",
    "ward_name": "Gandhinagar"
  },
  {
    "lat": 12.9696,
    "lng": 77.5754,
    "raw_lat": 12.9696,
    "raw_lng": 77.5754,
    "snapped": false,
    "snap_confidence": null,
    "violation_count": 1752,
    "address": "AS Char Main Road, Chickpet Circle, Chickpete, Bengaluru, Karnataka. Pin-560053 (India)",
    "locality": "Chickpete",
    "congestion_ratio": 1.31,
    "impact_score": 0.384,
    "reachability": null,
    "priority_rank": 15,
    "ward_no": "138",
    "ward_name": "Chickpete"
  },
  {
    "lat": 12.9738,
    "lng": 77.5446,
    "raw_lat": 12.9738,
    "raw_lng": 77.5446,
    "snapped": false,
    "snap_confidence": null,
    "violation_count": 1378,
    "address": "3rd Cross Road, Manuvana, Vijaya Nagar, Bengaluru, Karnataka. Pin-560040 (India)",
    "locality": "Vijaya Nagar",
    "congestion_ratio": 1.64,
    "impact_score": 0.378,
    "reachability": null,
    "priority_rank": 16,
    "ward_no": "157",
    "ward_name": "Vijayanagar"
  },
  {
    "lat": 12.978,
    "lng": 77.5768,
    "raw_lat": 12.978,
    "raw_lng": 77.5768,
    "snapped": false,
    "snap_confidence": null,
    "violation_count": 1711,
    "address": "4th Cross Road, RK Puram, Gandhi Nagar, Bengaluru, Karnataka. Pin-560009 (India)",
    "locality": "Gandhi Nagar",
    "congestion_ratio": 1.32,
    "impact_score": 0.377,
    "reachability": null,
    "priority_rank": 17,
    "ward_no": "133",
    "ward_name": "Gandhinagar"
  },
  {
    "lat": 12.978,
    "lng": 77.5754,
    "raw_lat": 12.978,
    "raw_lng": 77.5754,
    "snapped": false,
    "snap_confidence": null,
    "violation_count": 2029,
    "address": "Subedar Chatram Road, RK Puram, Gandhi Nagar, Bengaluru, Karnataka. Pin-560009 (India)",
    "locality": "Gandhi Nagar",
    "congestion_ratio": 1.11,
    "impact_score": 0.376,
    "reachability": null,
    "priority_rank": 18,
    "ward_no": "133",
    "ward_name": "Gandhinagar"
  },
  {
    "lat": 12.999,
    "lng": 77.5488,
    "raw_lat": 12.999,
    "raw_lng": 77.5488,
    "snapped": false,
    "snap_confidence": null,
    "violation_count": 1147,
    "address": "2nd Main Road, Star Circle, Rajaji Nagar, Bengaluru, Karnataka. Pin-560010 (India)",
    "locality": "Rajaji Nagar",
    "congestion_ratio": 1.94,
    "impact_score": 0.372,
    "reachability": null,
    "priority_rank": 19,
    "ward_no": "51",
    "ward_name": "Nagapura"
  },
  {
    "lat": 12.978,
    "lng": 77.574,
    "raw_lat": 12.978,
    "raw_lng": 77.574,
    "snapped": false,
    "snap_confidence": null,
    "violation_count": 1590,
    "address": "Major T Ramachandrappa Road, AT Extension, Gandhi Nagar, Bengaluru, Karnataka. Pin-560009 (India)",
    "locality": "Gandhi Nagar",
    "congestion_ratio": 1.39,
    "impact_score": 0.369,
    "reachability": null,
    "priority_rank": 20,
    "ward_no": "133",
    "ward_name": "Gandhinagar"
  },
  {
    "lat": 12.9346,
    "lng": 77.6902,
    "raw_lat": 12.9346,
    "raw_lng": 77.6902,
    "snapped": false,
    "snap_confidence": null,
    "violation_count": 1932,
    "address": "Outer Ring Road, Prestige Silver Crest, Kadubisanahalli, Bengaluru, Karnataka. Pin-560103 (India)",
    "locality": "Kadubisanahalli",
    "congestion_ratio": 1.13,
    "impact_score": 0.365,
    "reachability": null,
    "priority_rank": 21,
    "ward_no": "114",
    "ward_name": "Marathahalli"
  },
  {
    "lat": 12.9822,
    "lng": 77.6076,
    "raw_lat": 12.9822,
    "raw_lng": 77.6076,
    "snapped": false,
    "snap_confidence": null,
    "violation_count": 1637,
    "address": "Commercial Street, Tasker Town, Shivaji Nagar, Bengaluru, Karnataka. Pin-560001 (India)",
    "locality": "Shivaji Nagar",
    "congestion_ratio": 1.33,
    "impact_score": 0.364,
    "reachability": null,
    "priority_rank": 22,
    "ward_no": "129",
    "ward_name": "Sampangiram Nagar"
  },
  {
    "lat": 12.9822,
    "lng": 77.6104,
    "raw_lat": 12.9822,
    "raw_lng": 77.6104,
    "snapped": false,
    "snap_confidence": null,
    "violation_count": 1922,
    "address": "Haji Ibrahim Sahib Road, Sri Nagamma Devi Circle, Sivanchetti Gardens, Bengaluru, Karnataka. Pin-560042 (India)",
    "locality": "Sivanchetti Gardens",
    "congestion_ratio": 1.13,
    "impact_score": 0.363,
    "reachability": null,
    "priority_rank": 23,
    "ward_no": "129",
    "ward_name": "Sampangiram Nagar"
  },
  {
    "lat": 12.9738,
    "lng": 77.5782,
    "raw_lat": 12.9738,
    "raw_lng": 77.5782,
    "snapped": false,
    "snap_confidence": null,
    "violation_count": 1767,
    "address": "1st Cross Road, Kempegowda Maharaja Complex, Kempegowda Extension, Chickpete, Bengaluru, Karnataka. Pin-560009 (India)",
    "locality": "Chickpete",
    "congestion_ratio": 1.23,
    "impact_score": 0.363,
    "reachability": null,
    "priority_rank": 24,
    "ward_no": "138",
    "ward_name": "Chickpete"
  },
  {
    "lat": 12.9822,
    "lng": 77.6062,
    "raw_lat": 12.9822,
    "raw_lng": 77.6062,
    "snapped": false,
    "snap_confidence": null,
    "violation_count": 1656,
    "address": "Dispensary Road, Tasker Town, Shivaji Nagar, Bengaluru, Karnataka. Pin-560001 (India)",
    "locality": "Shivaji Nagar",
    "congestion_ratio": 1.31,
    "impact_score": 0.363,
    "reachability": null,
    "priority_rank": 25,
    "ward_no": "129",
    "ward_name": "Sampangiram Nagar"
  },
  {
    "lat": 12.9752,
    "lng": 77.5768,
    "raw_lat": 12.9752,
    "raw_lng": 77.5768,
    "snapped": false,
    "snap_confidence": null,
    "violation_count": 1620,
    "address": "Kempegowda Road, Kempe Gowda Circle, Gandhi Nagar, Bengaluru, Karnataka. Pin-560009 (India)",
    "locality": "Gandhi Nagar",
    "congestion_ratio": 1.28,
    "impact_score": 0.347,
    "reachability": null,
    "priority_rank": 26,
    "ward_no": "133",
    "ward_name": "Gandhinagar"
  },
  {
    "lat": 13.0116,
    "lng": 77.5544,
    "raw_lat": 13.0116,
    "raw_lng": 77.5544,
    "snapped": false,
    "snap_confidence": null,
    "violation_count": 1708,
    "address": "80 Feet Ring Road, Orion, Brigade Gateway, Malleshwaram West, Bengaluru, Karnataka. Pin-560055 (India)",
    "locality": "Malleshwaram West",
    "congestion_ratio": 1.17,
    "impact_score": 0.334,
    "reachability": null,
    "priority_rank": 27,
    "ward_no": "51",
    "ward_name": "Nagapura"
  },
  {
    "lat": 12.9808,
    "lng": 77.5978,
    "raw_lat": 12.9808,
    "raw_lng": 77.5978,
    "snapped": false,
    "snap_confidence": null,
    "violation_count": 1059,
    "address": "Cubbon Road, Coffee Board Junction, Vasant Nagar, Bengaluru, Karnataka. Pin-560001 (India)",
    "locality": "Vasant Nagar",
    "congestion_ratio": 1.88,
    "impact_score": 0.333,
    "reachability": null,
    "priority_rank": 28,
    "ward_no": "129",
    "ward_name": "Sampangiram Nagar"
  },
  {
    "lat": 12.9766,
    "lng": 77.5754,
    "raw_lat": 12.9766,
    "raw_lng": 77.5754,
    "snapped": false,
    "snap_confidence": null,
    "violation_count": 1539,
    "address": "Subedar Chatram Road, RK Puram, Gandhi Nagar, Bengaluru, Karnataka. Pin-560009 (India)",
    "locality": "Gandhi Nagar",
    "congestion_ratio": 1.29,
    "impact_score": 0.332,
    "reachability": null,
    "priority_rank": 29,
    "ward_no": "133",
    "ward_name": "Gandhinagar"
  },
  {
    "lat": 12.9808,
    "lng": 77.609,
    "raw_lat": 12.9808,
    "raw_lng": 77.609,
    "snapped": false,
    "snap_confidence": null,
    "violation_count": 1542,
    "address": "Dispensary Road, Tasker Town, Shivaji Nagar, Bengaluru, Karnataka. Pin-560001 (India)",
    "locality": "Shivaji Nagar",
    "congestion_ratio": 1.27,
    "impact_score": 0.327,
    "reachability": null,
    "priority_rank": 30,
    "ward_no": "129",
    "ward_name": "Sampangiram Nagar"
  },
  {
    "lat": 12.9738,
    "lng": 77.546,
    "raw_lat": 12.9738,
    "raw_lng": 77.546,
    "snapped": false,
    "snap_confidence": null,
    "violation_count": 1376,
    "address": "2nd Cross Road, Manuvana, Vijaya Nagar, Bengaluru, Karnataka. Pin-560040 (India)",
    "locality": "Vijaya Nagar",
    "congestion_ratio": 1.42,
    "impact_score": 0.327,
    "reachability": null,
    "priority_rank": 31,
    "ward_no": "157",
    "ward_name": "Vijayanagar"
  },
  {
    "lat": 13.0704,
    "lng": 77.588,
    "raw_lat": 13.0704,
    "raw_lng": 77.588,
    "snapped": false,
    "snap_confidence": null,
    "violation_count": 1907,
    "address": "Ayyappa Temple Road, Fortuna Acacia, Byatarayanapura, Bengaluru, Karnataka. Pin-560092 (India)",
    "locality": "Byatarayanapura",
    "congestion_ratio": 1.02,
    "impact_score": 0.325,
    "reachability": null,
    "priority_rank": 32,
    "ward_no": "11",
    "ward_name": "Byatarayanapura"
  },
  {
    "lat": 12.9752,
    "lng": 77.5754,
    "raw_lat": 12.9752,
    "raw_lng": 77.5754,
    "snapped": false,
    "snap_confidence": null,
    "violation_count": 1370,
    "address": "Kempegowda Road, Subash Nagar, Gandhi Nagar, Bengaluru, Karnataka. Pin-560009 (India)",
    "locality": "Gandhi Nagar",
    "congestion_ratio": 1.42,
    "impact_score": 0.325,
    "reachability": null,
    "priority_rank": 33,
    "ward_no": "133",
    "ward_name": "Gandhinagar"
  },
  {
    "lat": 13.0088,
    "lng": 77.6944,
    "raw_lat": 13.0088,
    "raw_lng": 77.6944,
    "snapped": false,
    "snap_confidence": null,
    "violation_count": 1020,
    "address": "Hosa Bajaru Road, Devasandra Junction, KR Puram, Bengaluru, Karnataka. Pin-560036 (India)",
    "locality": "KR Puram",
    "congestion_ratio": 1.83,
    "impact_score": 0.312,
    "reachability": null,
    "priority_rank": 34,
    "ward_no": "86",
    "ward_name": "K R Puram"
  },
  {
    "lat": 12.964,
    "lng": 77.5782,
    "raw_lat": 12.964,
    "raw_lng": 77.5782,
    "snapped": false,
    "snap_confidence": null,
    "violation_count": 1387,
    "address": "7th Cross Road, City Market Circle, Bengaluru, Karnataka. Pin-560002 (India)",
    "locality": "City Market Circle",
    "congestion_ratio": 1.34,
    "impact_score": 0.311,
    "reachability": null,
    "priority_rank": 35,
    "ward_no": "172",
    "ward_name": "Dharmaraya Swamy Temple Ward"
  },
  {
    "lat": 12.9766,
    "lng": 77.5796,
    "raw_lat": 12.9766,
    "raw_lng": 77.5796,
    "snapped": false,
    "snap_confidence": null,
    "violation_count": 1387,
    "address": "1st Main Road, Maharani College Junction, Gandhi Nagar, Bengaluru, Karnataka. Pin-560009 (India)",
    "locality": "Gandhi Nagar",
    "congestion_ratio": 1.32,
    "impact_score": 0.306,
    "reachability": null,
    "priority_rank": 36,
    "ward_no": "133",
    "ward_name": "Gandhinagar"
  },
  {
    "lat": 12.9794,
    "lng": 77.5754,
    "raw_lat": 12.9794,
    "raw_lng": 77.5754,
    "snapped": false,
    "snap_confidence": null,
    "violation_count": 1263,
    "address": "A Street, AT Extension, Gandhi Nagar, Bengaluru, Karnataka. Pin-560009 (India)",
    "locality": "Gandhi Nagar",
    "congestion_ratio": 1.45,
    "impact_score": 0.306,
    "reachability": null,
    "priority_rank": 37,
    "ward_no": "133",
    "ward_name": "Gandhinagar"
  },
  {
    "lat": 12.964,
    "lng": 77.5796,
    "raw_lat": 12.964,
    "raw_lng": 77.5796,
    "snapped": false,
    "snap_confidence": null,
    "violation_count": 699,
    "address": "Silver Jubilee Park Road, Dodpete, Nagartapete, Bengaluru, Karnataka. Pin-560002 (India)",
    "locality": "Nagartapete",
    "congestion_ratio": 2.47,
    "impact_score": 0.289,
    "reachability": null,
    "priority_rank": 38,
    "ward_no": "172",
    "ward_name": "Dharmaraya Swamy Temple Ward"
  },
  {
    "lat": 12.9794,
    "lng": 77.6076,
    "raw_lat": 12.9794,
    "raw_lng": 77.6076,
    "snapped": false,
    "snap_confidence": null,
    "violation_count": 1379,
    "address": "Main Guard Cross Road, Tasker Town, Shivaji Nagar, Bengaluru, Karnataka. Pin-560001 (India)",
    "locality": "Shivaji Nagar",
    "congestion_ratio": 1.22,
    "impact_score": 0.281,
    "reachability": null,
    "priority_rank": 39,
    "ward_no": "129",
    "ward_name": "Sampangiram Nagar"
  },
  {
    "lat": 13.0074,
    "lng": 77.5712,
    "raw_lat": 13.0074,
    "raw_lng": 77.5712,
    "snapped": false,
    "snap_confidence": null,
    "violation_count": 1239,
    "address": "Sri Venkataranga Ayangar Road, Ranganathapura, Malleshwaram, Bengaluru, Karnataka. Pin-560003 (India)",
    "locality": "Malleshwaram",
    "congestion_ratio": 1.31,
    "impact_score": 0.271,
    "reachability": null,
    "priority_rank": 40,
    "ward_no": "60",
    "ward_name": "Aramane Nagara"
  },
  {
    "lat": 13.006,
    "lng": 77.5712,
    "raw_lat": 13.006,
    "raw_lng": 77.5712,
    "snapped": false,
    "snap_confidence": null,
    "violation_count": 812,
    "address": "Sri Venkataranga Ayangar Road, Ranganathapura, Malleshwaram, Bengaluru, Karnataka. Pin-560003 (India)",
    "locality": "Malleshwaram",
    "congestion_ratio": 1.99,
    "impact_score": 0.27,
    "reachability": null,
    "priority_rank": 41,
    "ward_no": "60",
    "ward_name": "Aramane Nagara"
  },
  {
    "lat": 13.013,
    "lng": 77.5544,
    "raw_lat": 13.013,
    "raw_lng": 77.5544,
    "snapped": false,
    "snap_confidence": null,
    "violation_count": 1144,
    "address": "Chord Road, World Trade Centre, Brigade Gateway, Malleshwaram West, Bengaluru, Karnataka. Pin-560055 (India)",
    "locality": "Malleshwaram West",
    "congestion_ratio": 1.39,
    "impact_score": 0.266,
    "reachability": null,
    "priority_rank": 42,
    "ward_no": "62",
    "ward_name": "Subramanya Nagar"
  },
  {
    "lat": 12.978,
    "lng": 77.5796,
    "raw_lat": 12.978,
    "raw_lng": 77.5796,
    "snapped": false,
    "snap_confidence": null,
    "violation_count": 1268,
    "address": "2nd Main Road, Jakkarayana Kere, Gandhi Nagar, Bengaluru, Karnataka. Pin-560009 (India)",
    "locality": "Gandhi Nagar",
    "congestion_ratio": 1.25,
    "impact_score": 0.265,
    "reachability": null,
    "priority_rank": 43,
    "ward_no": "133",
    "ward_name": "Gandhinagar"
  },
  {
    "lat": 12.9752,
    "lng": 77.5446,
    "raw_lat": 12.9752,
    "raw_lng": 77.5446,
    "snapped": false,
    "snap_confidence": null,
    "violation_count": 929,
    "address": "Nagarabhavi Main Road, Sindhya Sunshine Apartment, Vijaya Nagar, Bengaluru, Karnataka. Pin-560040 (India)",
    "locality": "Vijaya Nagar",
    "congestion_ratio": 1.7,
    "impact_score": 0.264,
    "reachability": null,
    "priority_rank": 44,
    "ward_no": "146",
    "ward_name": "Dr. Raj Kumar Ward"
  },
  {
    "lat": 12.9976,
    "lng": 77.5488,
    "raw_lat": 12.9976,
    "raw_lng": 77.5488,
    "snapped": false,
    "snap_confidence": null,
    "violation_count": 766,
    "address": "Padmabhushan Dr MC Modi Road, Phase 1, Manjunatha Nagar, Rajaji Nagar, Bengaluru, Karnataka. Pin-560010 (India)",
    "locality": "Rajaji Nagar",
    "congestion_ratio": 2.06,
    "impact_score": 0.264,
    "reachability": null,
    "priority_rank": 45,
    "ward_no": "51",
    "ward_name": "Nagapura"
  },
  {
    "lat": 12.9808,
    "lng": 77.6076,
    "raw_lat": 12.9808,
    "raw_lng": 77.6076,
    "snapped": false,
    "snap_confidence": null,
    "violation_count": 1243,
    "address": "Main Guard Cross Road, Tasker Town, Shivaji Nagar, Bengaluru, Karnataka. Pin-560001 (India)",
    "locality": "Shivaji Nagar",
    "congestion_ratio": 1.26,
    "impact_score": 0.262,
    "reachability": null,
    "priority_rank": 46,
    "ward_no": "129",
    "ward_name": "Sampangiram Nagar"
  },
  {
    "lat": 12.943,
    "lng": 77.5712,
    "raw_lat": 12.943,
    "raw_lng": 77.5712,
    "snapped": false,
    "snap_confidence": null,
    "violation_count": 814,
    "address": "Sri DV Gundappa Road, Shopper Junction, Basavanagudi, Bengaluru, Karnataka. Pin-560004 (India)",
    "locality": "Basavanagudi",
    "congestion_ratio": 1.84,
    "impact_score": 0.25,
    "reachability": null,
    "priority_rank": 47,
    "ward_no": "210",
    "ward_name": "Basavanagudi"
  },
  {
    "lat": 12.9962,
    "lng": 77.6692,
    "raw_lat": 12.9962,
    "raw_lng": 77.6692,
    "snapped": false,
    "snap_confidence": null,
    "violation_count": 850,
    "address": "MBT Road, Tin Factory Junction, Dooravani Nagar, Bengaluru, Karnataka. Pin-560016 (India)",
    "locality": "Dooravani Nagar",
    "congestion_ratio": 1.69,
    "impact_score": 0.24,
    "reachability": null,
    "priority_rank": 48,
    "ward_no": "91",
    "ward_name": "A Narayanapura"
  },
  {
    "lat": 12.9724,
    "lng": 77.5796,
    "raw_lat": 12.9724,
    "raw_lng": 77.5796,
    "snapped": false,
    "snap_confidence": null,
    "violation_count": 1124,
    "address": "Hospital Road, Kempegowda Extension, Chickpete, Bengaluru, Karnataka. Pin-560009 (India)",
    "locality": "Chickpete",
    "congestion_ratio": 1.25,
    "impact_score": 0.235,
    "reachability": null,
    "priority_rank": 49,
    "ward_no": "138",
    "ward_name": "Chickpete"
  },
  {
    "lat": 13.0004,
    "lng": 77.5502,
    "raw_lat": 13.0004,
    "raw_lng": 77.5502,
    "snapped": false,
    "snap_confidence": null,
    "violation_count": 1631,
    "address": "19th Main Road, Block 1, Rajaji Nagar, Bengaluru, Karnataka. Pin-560010 (India)",
    "locality": "Rajaji Nagar",
    "congestion_ratio": 0.86,
    "impact_score": 0.234,
    "reachability": null,
    "priority_rank": 50,
    "ward_no": "51",
    "ward_name": "Nagapura"
  },
  {
    "lat": 12.9976,
    "lng": 77.5474,
    "raw_lat": 12.9976,
    "raw_lng": 77.5474,
    "snapped": false,
    "snap_confidence": null,
    "violation_count": 577,
    "address": "Padmabhushan Dr MC Modi Road, Phase 1, Manjunatha Nagar, Rajaji Nagar, Bengaluru, Karnataka. Pin-560010 (India)",
    "locality": "Rajaji Nagar",
    "congestion_ratio": 2.43,
    "impact_score": 0.234,
    "reachability": null,
    "priority_rank": 51,
    "ward_no": "51",
    "ward_name": "Nagapura"
  },
  {
    "lat": 12.9542,
    "lng": 77.5432,
    "raw_lat": 12.9542,
    "raw_lng": 77.5432,
    "snapped": false,
    "snap_confidence": null,
    "violation_count": 803,
    "address": "Mysore Road, Satellite Bus Stand Junction, New Timber Yard Layout, Bengaluru, Karnataka. Pin-560026 (India)",
    "locality": "New Timber Yard Layout",
    "congestion_ratio": 1.72,
    "impact_score": 0.231,
    "reachability": null,
    "priority_rank": 52,
    "ward_no": "164",
    "ward_name": "Avalahalli"
  },
  {
    "lat": 12.9654,
    "lng": 77.5838,
    "raw_lat": 12.9654,
    "raw_lng": 77.5838,
    "snapped": false,
    "snap_confidence": null,
    "violation_count": 1043,
    "address": "Sri Dharmaraya Swamy Temple Main Road, Shoukath Mohalla, Nagartapete, Bengaluru, Karnataka. Pin-560002 (India)",
    "locality": "Nagartapete",
    "congestion_ratio": 1.32,
    "impact_score": 0.23,
    "reachability": null,
    "priority_rank": 53,
    "ward_no": "172",
    "ward_name": "Dharmaraya Swamy Temple Ward"
  },
  {
    "lat": 12.971,
    "lng": 77.5978,
    "raw_lat": 12.971,
    "raw_lng": 77.5978,
    "snapped": false,
    "snap_confidence": null,
    "violation_count": 640,
    "address": "Sri ML Subbaraju Road, Walton Road Circle, Shanthala Nagar, Bengaluru, Karnataka. Pin-560001 (India)",
    "locality": "Shanthala Nagar",
    "congestion_ratio": 2.15,
    "impact_score": 0.23,
    "reachability": null,
    "priority_rank": 54,
    "ward_no": "181",
    "ward_name": "Shantala Nagar"
  },
  {
    "lat": 12.9976,
    "lng": 77.5502,
    "raw_lat": 12.9976,
    "raw_lng": 77.5502,
    "snapped": false,
    "snap_confidence": null,
    "violation_count": 660,
    "address": "Padmabhushan Dr MC Modi Road, Star Circle, Rajaji Nagar, Bengaluru, Karnataka. Pin-560010 (India)",
    "locality": "Rajaji Nagar",
    "congestion_ratio": 2.05,
    "impact_score": 0.226,
    "reachability": null,
    "priority_rank": 55,
    "ward_no": "51",
    "ward_name": "Nagapura"
  },
  {
    "lat": 12.9654,
    "lng": 77.539,
    "raw_lat": 12.9654,
    "raw_lng": 77.539,
    "snapped": false,
    "snap_confidence": null,
    "violation_count": 1420,
    "address": "4th Main Road, RPC Layout, Vijaya Nagar Stage 2, Bengaluru, Karnataka. Pin-560104 (India)",
    "locality": "Vijaya Nagar Stage 2",
    "congestion_ratio": 0.93,
    "impact_score": 0.221,
    "reachability": null,
    "priority_rank": 56,
    "ward_no": "159",
    "ward_name": "Hampi Nagar"
  },
  {
    "lat": 12.978,
    "lng": 77.5782,
    "raw_lat": 12.978,
    "raw_lng": 77.5782,
    "snapped": false,
    "snap_confidence": null,
    "violation_count": 989,
    "address": "4th Cross Road, Sri Kanakadasa Circle, Gandhi Nagar, Bengaluru, Karnataka. Pin-560009 (India)",
    "locality": "Gandhi Nagar",
    "congestion_ratio": 1.33,
    "impact_score": 0.22,
    "reachability": null,
    "priority_rank": 57,
    "ward_no": "133",
    "ward_name": "Gandhinagar"
  },
  {
    "lat": 12.9794,
    "lng": 77.5782,
    "raw_lat": 12.9794,
    "raw_lng": 77.5782,
    "snapped": false,
    "snap_confidence": null,
    "violation_count": 1000,
    "address": "Vajreshwari Road, R Subanna Circle, Gandhi Nagar, Bengaluru, Karnataka. Pin-560001 (India)",
    "locality": "Gandhi Nagar",
    "congestion_ratio": 1.31,
    "impact_score": 0.219,
    "reachability": null,
    "priority_rank": 58,
    "ward_no": "133",
    "ward_name": "Gandhinagar"
  },
  {
    "lat": 12.992,
    "lng": 77.588,
    "raw_lat": 12.992,
    "raw_lng": 77.588,
    "snapped": false,
    "snap_confidence": null,
    "violation_count": 912,
    "address": "Palace Road, Embassy Palace, Abshot Layout, Vasant Nagar, Bengaluru, Karnataka. Pin-560001 (India)",
    "locality": "Vasant Nagar",
    "congestion_ratio": 1.44,
    "impact_score": 0.219,
    "reachability": null,
    "priority_rank": 59,
    "ward_no": "128",
    "ward_name": "Vasanth Nagar"
  },
  {
    "lat": 12.9808,
    "lng": 77.5754,
    "raw_lat": 12.9808,
    "raw_lng": 77.5754,
    "snapped": false,
    "snap_confidence": null,
    "violation_count": 678,
    "address": "Seshadri Road, Anand Rao Circle, Gandhi Nagar, Bengaluru, Karnataka. Pin-560009 (India)",
    "locality": "Gandhi Nagar",
    "congestion_ratio": 1.89,
    "impact_score": 0.214,
    "reachability": null,
    "priority_rank": 60,
    "ward_no": "133",
    "ward_name": "Gandhinagar"
  },
  {
    "lat": 12.9654,
    "lng": 77.574,
    "raw_lat": 12.9654,
    "raw_lng": 77.574,
    "snapped": false,
    "snap_confidence": null,
    "violation_count": 578,
    "address": "B Srinivasa Lane, Chanda Nagar, Sultanpete, Bengaluru, Karnataka. Pin-560053 (India)",
    "locality": "Sultanpete",
    "congestion_ratio": 2.2,
    "impact_score": 0.213,
    "reachability": null,
    "priority_rank": 61,
    "ward_no": "165",
    "ward_name": "Chamrajapet"
  },
  {
    "lat": 13.006,
    "lng": 77.686,
    "raw_lat": 13.006,
    "raw_lng": 77.686,
    "snapped": false,
    "snap_confidence": null,
    "violation_count": 722,
    "address": "South Avenue, SM Layout, Dooravani Nagar, Bengaluru, Karnataka. Pin-560016 (India)",
    "locality": "Dooravani Nagar",
    "congestion_ratio": 1.76,
    "impact_score": 0.212,
    "reachability": null,
    "priority_rank": 62,
    "ward_no": "86",
    "ward_name": "K R Puram"
  },
  {
    "lat": 12.9402,
    "lng": 77.6958,
    "raw_lat": 12.9402,
    "raw_lng": 77.6958,
    "snapped": false,
    "snap_confidence": null,
    "violation_count": 1316,
    "address": "Kadubeesanahalli Underpass, Indiqube Alpha, Reddy Layout, Kadubisanahalli, Bengaluru, Karnataka. Pin-560103 (India)",
    "locality": "Kadubisanahalli",
    "congestion_ratio": 0.96,
    "impact_score": 0.211,
    "reachability": null,
    "priority_rank": 63,
    "ward_no": "114",
    "ward_name": "Marathahalli"
  },
  {
    "lat": 12.9934,
    "lng": 77.5894,
    "raw_lat": 12.9934,
    "raw_lng": 77.5894,
    "snapped": false,
    "snap_confidence": null,
    "violation_count": 839,
    "address": "8th Main Road, Kumar Park, Vasant Nagar, Bengaluru, Karnataka. Pin-560001 (India)",
    "locality": "Vasant Nagar",
    "congestion_ratio": 1.49,
    "impact_score": 0.209,
    "reachability": null,
    "priority_rank": 64,
    "ward_no": "128",
    "ward_name": "Vasanth Nagar"
  },
  {
    "lat": 12.9794,
    "lng": 77.5796,
    "raw_lat": 12.9794,
    "raw_lng": 77.5796,
    "snapped": false,
    "snap_confidence": null,
    "violation_count": 814,
    "address": "Vajreshwari Road, Railway Officers Enclave, Gandhi Nagar, Bengaluru, Karnataka. Pin-560009 (India)",
    "locality": "Gandhi Nagar",
    "congestion_ratio": 1.49,
    "impact_score": 0.203,
    "reachability": null,
    "priority_rank": 65,
    "ward_no": "133",
    "ward_name": "Gandhinagar"
  },
  {
    "lat": 12.9962,
    "lng": 77.6678,
    "raw_lat": 12.9962,
    "raw_lng": 77.6678,
    "snapped": false,
    "snap_confidence": null,
    "violation_count": 845,
    "address": "MBT Road, Royal Heritage, Pai Layout, Mahadevapura, Bengaluru, Karnataka. Pin-560016 (India)",
    "locality": "Mahadevapura",
    "congestion_ratio": 1.43,
    "impact_score": 0.202,
    "reachability": null,
    "priority_rank": 66,
    "ward_no": "91",
    "ward_name": "A Narayanapura"
  },
  {
    "lat": 13.0004,
    "lng": 77.6776,
    "raw_lat": 13.0004,
    "raw_lng": 77.6776,
    "snapped": false,
    "snap_confidence": null,
    "violation_count": 1247,
    "address": "Outer Ring Road, Venkatappa Colony, Mahadevapura, Bengaluru, Karnataka. Pin-560016 (India)",
    "locality": "Mahadevapura",
    "congestion_ratio": 0.94,
    "impact_score": 0.196,
    "reachability": null,
    "priority_rank": 67,
    "ward_no": "89",
    "ward_name": "Devasandra"
  },
  {
    "lat": 13.0116,
    "lng": 77.5516,
    "raw_lat": 13.0116,
    "raw_lng": 77.5516,
    "snapped": false,
    "snap_confidence": null,
    "violation_count": 818,
    "address": "Da Ra Bendre Road, Kirloskar Foundry, Yeshwanthpur Suburb Stage 2, Yeshwanthpur, Bengaluru, Karnataka. Pin-560022 (India)",
    "locality": "Yeshwanthpur",
    "congestion_ratio": 1.42,
    "impact_score": 0.194,
    "reachability": null,
    "priority_rank": 68,
    "ward_no": "51",
    "ward_name": "Nagapura"
  },
  {
    "lat": 13.0116,
    "lng": 77.553,
    "raw_lat": 13.0116,
    "raw_lng": 77.553,
    "snapped": false,
    "snap_confidence": null,
    "violation_count": 780,
    "address": "Da Ra Bendre Road, Phoenix Kessaku, Rajaji Nagar, Bengaluru, Karnataka. Pin-560010 (India)",
    "locality": "Rajaji Nagar",
    "congestion_ratio": 1.46,
    "impact_score": 0.19,
    "reachability": null,
    "priority_rank": 69,
    "ward_no": "51",
    "ward_name": "Nagapura"
  },
  {
    "lat": 12.9752,
    "lng": 77.5586,
    "raw_lat": 12.9752,
    "raw_lng": 77.5586,
    "snapped": false,
    "snap_confidence": null,
    "violation_count": 719,
    "address": "8th Cross Road, Block C, KP Agrahara, Bengaluru, Karnataka. Pin-560023 (India)",
    "locality": "KP Agrahara",
    "congestion_ratio": 1.5,
    "impact_score": 0.18,
    "reachability": null,
    "priority_rank": 70,
    "ward_no": "156",
    "ward_name": "Kempapura Agrahara"
  },
  {
    "lat": 12.9822,
    "lng": 77.609,
    "raw_lat": 12.9822,
    "raw_lng": 77.609,
    "snapped": false,
    "snap_confidence": null,
    "violation_count": 974,
    "address": "Laxmana Mudaliar Street, Tasker Town, Shivaji Nagar, Bengaluru, Karnataka. Pin-560001 (India)",
    "locality": "Shivaji Nagar",
    "congestion_ratio": 1.1,
    "impact_score": 0.179,
    "reachability": null,
    "priority_rank": 71,
    "ward_no": "129",
    "ward_name": "Sampangiram Nagar"
  },
  {
    "lat": 12.9836,
    "lng": 77.6104,
    "raw_lat": 12.9836,
    "raw_lng": 77.6104,
    "snapped": false,
    "snap_confidence": null,
    "violation_count": 873,
    "address": "Venkataswamy Naidu Street, Nethaji Subhas Chadra Bose Circle, Shivaji Nagar, Bengaluru, Karnataka. Pin-560051 (India)",
    "locality": "Shivaji Nagar",
    "congestion_ratio": 1.18,
    "impact_score": 0.172,
    "reachability": null,
    "priority_rank": 72,
    "ward_no": "129",
    "ward_name": "Sampangiram Nagar"
  },
  {
    "lat": 12.9332,
    "lng": 77.6902,
    "raw_lat": 12.9332,
    "raw_lng": 77.6902,
    "snapped": false,
    "snap_confidence": null,
    "violation_count": 1015,
    "address": "New Horizon College Road, Embassy Tech Village, Devara Beesana Halli, Bengaluru, Karnataka. Pin-560103 (India)",
    "locality": "Devara Beesana Halli",
    "congestion_ratio": 1.01,
    "impact_score": 0.171,
    "reachability": null,
    "priority_rank": 73,
    "ward_no": "114",
    "ward_name": "Marathahalli"
  },
  {
    "lat": 12.8422,
    "lng": 77.6454,
    "raw_lat": 12.8422,
    "raw_lng": 77.6454,
    "snapped": false,
    "snap_confidence": null,
    "violation_count": 814,
    "address": "Neeladri Road, Ajmera Annex, Karuna Nagar, Doddathogur, Bengaluru, Karnataka. Pin-560100 (India)",
    "locality": "Doddathogur",
    "congestion_ratio": 1.22,
    "impact_score": 0.166,
    "reachability": null,
    "priority_rank": 74,
    "ward_no": "",
    "ward_name": "Outside BBMP"
  },
  {
    "lat": 12.999,
    "lng": 77.5712,
    "raw_lat": 12.999,
    "raw_lng": 77.5712,
    "snapped": false,
    "snap_confidence": null,
    "violation_count": 772,
    "address": "Sri Venkataranga Ayangar Road, RR Palace, Malleshwaram, Bengaluru, Karnataka. Pin-560003 (India)",
    "locality": "Malleshwaram",
    "congestion_ratio": 1.26,
    "impact_score": 0.163,
    "reachability": null,
    "priority_rank": 75,
    "ward_no": "64",
    "ward_name": "Kadu Malleshwara"
  },
  {
    "lat": 13.0088,
    "lng": 77.5558,
    "raw_lat": 13.0088,
    "raw_lng": 77.5558,
    "snapped": false,
    "snap_confidence": null,
    "violation_count": 747,
    "address": "4th Main Road, Dr Rajkumar Road 17th Cross Junction, Rajaji Nagar, Bengaluru, Karnataka. Pin-560010 (India)",
    "locality": "Rajaji Nagar",
    "congestion_ratio": 1.24,
    "impact_score": 0.155,
    "reachability": null,
    "priority_rank": 76,
    "ward_no": "62",
    "ward_name": "Subramanya Nagar"
  },
  {
    "lat": 13.1838,
    "lng": 77.6804,
    "raw_lat": 13.1838,
    "raw_lng": 77.6804,
    "snapped": false,
    "snap_confidence": null,
    "violation_count": 1354,
    "address": "Unnamed Road, Begur Chikkanahalli, Bengaluru, Karnataka. Pin-562149 (India)",
    "locality": "Begur Chikkanahalli",
    "congestion_ratio": 0.68,
    "impact_score": 0.154,
    "reachability": null,
    "priority_rank": 77,
    "ward_no": "",
    "ward_name": "Outside BBMP"
  },
  {
    "lat": 12.9122,
    "lng": 77.6356,
    "raw_lat": 12.9122,
    "raw_lng": 77.6356,
    "snapped": false,
    "snap_confidence": null,
    "violation_count": 623,
    "address": "17th Cross Road, The Metropolitan Cooperative Housing Society, Sector 4, HSR Layout, Bengaluru, Karnataka. Pin-560102 (India)",
    "locality": "HSR Layout",
    "congestion_ratio": 1.48,
    "impact_score": 0.154,
    "reachability": null,
    "priority_rank": 78,
    "ward_no": "230",
    "ward_name": "Agara"
  },
  {
    "lat": 12.9654,
    "lng": 77.7182,
    "raw_lat": 12.9654,
    "raw_lng": 77.7182,
    "snapped": false,
    "snap_confidence": null,
    "violation_count": 831,
    "address": "ITPL Main Road, Vijetha Lapis Lazuli, Brookefield, Bengaluru, Karnataka. Pin-560037 (India)",
    "locality": "Brookefield",
    "congestion_ratio": 1.09,
    "impact_score": 0.151,
    "reachability": null,
    "priority_rank": 79,
    "ward_no": "109",
    "ward_name": "AECS Layout"
  },
  {
    "lat": 12.95,
    "lng": 77.7,
    "raw_lat": 12.95,
    "raw_lng": 77.7,
    "snapped": false,
    "snap_confidence": null,
    "violation_count": 601,
    "address": "SGR Dental College Road, Sharadamma Layout, Munnekolala, Bengaluru, Karnataka. Pin-560037 (India)",
    "locality": "Munnekolala",
    "congestion_ratio": 1.49,
    "impact_score": 0.15,
    "reachability": null,
    "priority_rank": 80,
    "ward_no": "114",
    "ward_name": "Marathahalli"
  },
  {
    "lat": 12.9458,
    "lng": 77.5712,
    "raw_lat": 12.9458,
    "raw_lng": 77.5712,
    "snapped": false,
    "snap_confidence": null,
    "violation_count": 597,
    "address": "HB Samaja Road, Gandhi Bazar Circle, Basavanagudi, Bengaluru, Karnataka. Pin-560004 (India)",
    "locality": "Basavanagudi",
    "congestion_ratio": 1.49,
    "impact_score": 0.149,
    "reachability": null,
    "priority_rank": 81,
    "ward_no": "173",
    "ward_name": "Sunkenahalli"
  },
  {
    "lat": 13.1838,
    "lng": 77.679,
    "raw_lat": 13.1838,
    "raw_lng": 77.679,
    "snapped": false,
    "snap_confidence": null,
    "violation_count": 906,
    "address": "Unnamed Road, Jagajothi Nagar, Muthugada Halli, Bengaluru, Karnataka. Pin-562157 (India)",
    "locality": "Muthugada Halli",
    "congestion_ratio": 0.97,
    "impact_score": 0.147,
    "reachability": null,
    "priority_rank": 82,
    "ward_no": "",
    "ward_name": "Outside BBMP"
  },
  {
    "lat": 12.9822,
    "lng": 77.6118,
    "raw_lat": 12.9822,
    "raw_lng": 77.6118,
    "snapped": false,
    "snap_confidence": null,
    "violation_count": 701,
    "address": "St John Road, Sri Nagamma Devi Circle, Sivanchetti Gardens, Bengaluru, Karnataka. Pin-560042 (India)",
    "locality": "Sivanchetti Gardens",
    "congestion_ratio": 1.25,
    "impact_score": 0.146,
    "reachability": null,
    "priority_rank": 83,
    "ward_no": "131",
    "ward_name": "Ulsoor"
  },
  {
    "lat": 12.9598,
    "lng": 77.5768,
    "raw_lat": 12.9598,
    "raw_lng": 77.5768,
    "snapped": false,
    "snap_confidence": null,
    "violation_count": 577,
    "address": "Sri Jalakanteshwara Swami Temple Road, Kalasipalyam, Bengaluru, Karnataka. Pin-560002 (India)",
    "locality": "Kalasipalyam",
    "congestion_ratio": 1.51,
    "impact_score": 0.146,
    "reachability": null,
    "priority_rank": 84,
    "ward_no": "172",
    "ward_name": "Dharmaraya Swamy Temple Ward"
  },
  {
    "lat": 12.9738,
    "lng": 77.5502,
    "raw_lat": 12.9738,
    "raw_lng": 77.5502,
    "snapped": false,
    "snap_confidence": null,
    "violation_count": 695,
    "address": "G Narayana Kumar Road, Old Tollgate, Cholurpalya, Bengaluru, Karnataka. Pin-560023 (India)",
    "locality": "Cholurpalya",
    "congestion_ratio": 1.2,
    "impact_score": 0.139,
    "reachability": null,
    "priority_rank": 85,
    "ward_no": "146",
    "ward_name": "Dr. Raj Kumar Ward"
  },
  {
    "lat": 12.9808,
    "lng": 77.5992,
    "raw_lat": 12.9808,
    "raw_lng": 77.5992,
    "snapped": false,
    "snap_confidence": null,
    "violation_count": 584,
    "address": "Cubbon Road, Mantri Altiue Apartment, Shivaji Nagar, Bengaluru, Karnataka. Pin-560001 (India)",
    "locality": "Shivaji Nagar",
    "congestion_ratio": 1.42,
    "impact_score": 0.139,
    "reachability": null,
    "priority_rank": 86,
    "ward_no": "129",
    "ward_name": "Sampangiram Nagar"
  },
  {
    "lat": 12.9612,
    "lng": 77.5278,
    "raw_lat": 12.9612,
    "raw_lng": 77.5278,
    "snapped": false,
    "snap_confidence": null,
    "violation_count": 600,
    "address": "6th Cross Road, Sri Basaveshwara HBCS, Phase 1, Chandra Layout Stage 2, Bengaluru, Karnataka. Pin-560040 (India)",
    "locality": "Chandra Layout Stage 2",
    "congestion_ratio": 1.34,
    "impact_score": 0.134,
    "reachability": null,
    "priority_rank": 87,
    "ward_no": "161",
    "ward_name": "Attiguppe"
  },
  {
    "lat": 12.9654,
    "lng": 77.5754,
    "raw_lat": 12.9654,
    "raw_lng": 77.5754,
    "snapped": false,
    "snap_confidence": null,
    "violation_count": 887,
    "address": "Police Road, Sri Krishna Rajendra Market, Chickpete, Bengaluru, Karnataka. Pin-560002 (India)",
    "locality": "Chickpete",
    "congestion_ratio": 0.9,
    "impact_score": 0.133,
    "reachability": null,
    "priority_rank": 88,
    "ward_no": "165",
    "ward_name": "Chamrajapet"
  },
  {
    "lat": 12.957,
    "lng": 77.7014,
    "raw_lat": 12.957,
    "raw_lng": 77.7014,
    "snapped": false,
    "snap_confidence": null,
    "violation_count": 693,
    "address": "Marathahalli Underpass U Turn, Marathahalli, Bengaluru, Karnataka. Pin-560037 (India)",
    "locality": "Marathahalli",
    "congestion_ratio": 1.14,
    "impact_score": 0.132,
    "reachability": null,
    "priority_rank": 89,
    "ward_no": "109",
    "ward_name": "AECS Layout"
  },
  {
    "lat": 12.9766,
    "lng": 77.5712,
    "raw_lat": 12.9766,
    "raw_lng": 77.5712,
    "snapped": false,
    "snap_confidence": null,
    "violation_count": 647,
    "address": "Rao Bahadur DGT Road, Majestic Circle, Majestic, Bengaluru, Karnataka. Pin-560023 (India)",
    "locality": "Majestic",
    "congestion_ratio": 1.15,
    "impact_score": 0.124,
    "reachability": null,
    "priority_rank": 90,
    "ward_no": "133",
    "ward_name": "Gandhinagar"
  },
  {
    "lat": 12.9304,
    "lng": 77.686,
    "raw_lat": 12.9304,
    "raw_lng": 77.686,
    "snapped": false,
    "snap_confidence": null,
    "violation_count": 584,
    "address": "Outer Ring Road, Vajram Esteva, Devara Beesana Halli, Bengaluru, Karnataka. Pin-560103 (India)",
    "locality": "Devara Beesana Halli",
    "congestion_ratio": 1.24,
    "impact_score": 0.121,
    "reachability": null,
    "priority_rank": 91,
    "ward_no": "114",
    "ward_name": "Marathahalli"
  },
  {
    "lat": 12.9724,
    "lng": 77.658,
    "raw_lat": 12.9724,
    "raw_lng": 77.658,
    "snapped": false,
    "snap_confidence": null,
    "violation_count": 683,
    "address": "Suranjan Das Road, Nada Prabhu Kempegowda Circle, New Thippasandra, Bengaluru, Karnataka. Pin-560075 (India)",
    "locality": "New Thippasandra",
    "congestion_ratio": 0.97,
    "impact_score": 0.111,
    "reachability": null,
    "priority_rank": 92,
    "ward_no": "122",
    "ward_name": "New Thippasandra"
  },
  {
    "lat": 13.006,
    "lng": 77.5684,
    "raw_lat": 13.006,
    "raw_lng": 77.5684,
    "snapped": false,
    "snap_confidence": null,
    "violation_count": 574,
    "address": "4th Main Road, Malleshwara Extension, Malleshwaram West, Bengaluru, Karnataka. Pin-560055 (India)",
    "locality": "Malleshwaram West",
    "congestion_ratio": 1.16,
    "impact_score": 0.111,
    "reachability": null,
    "priority_rank": 93,
    "ward_no": "61",
    "ward_name": "Malleswaram"
  },
  {
    "lat": 12.999,
    "lng": 77.553,
    "raw_lat": 12.999,
    "raw_lng": 77.553,
    "snapped": false,
    "snap_confidence": null,
    "violation_count": 670,
    "address": "1st Main Road, Navarang Circle, Rajaji Nagar, Bengaluru, Karnataka. Pin-560010 (India)",
    "locality": "Rajaji Nagar",
    "congestion_ratio": 0.98,
    "impact_score": 0.11,
    "reachability": null,
    "priority_rank": 94,
    "ward_no": "63",
    "ward_name": "Gayithri Nagar"
  },
  {
    "lat": 12.9836,
    "lng": 77.609,
    "raw_lat": 12.9836,
    "raw_lng": 77.609,
    "snapped": false,
    "snap_confidence": null,
    "violation_count": 582,
    "address": "Veera Pillai Street, Nethaji Subhas Chadra Bose Circle, Shivaji Nagar, Bengaluru, Karnataka. Pin-560051 (India)",
    "locality": "Shivaji Nagar",
    "congestion_ratio": 1.09,
    "impact_score": 0.106,
    "reachability": null,
    "priority_rank": 95,
    "ward_no": "129",
    "ward_name": "Sampangiram Nagar"
  },
  {
    "lat": 13.1866,
    "lng": 77.6804,
    "raw_lat": 13.1866,
    "raw_lng": 77.6804,
    "snapped": false,
    "snap_confidence": null,
    "violation_count": 762,
    "address": "Unnamed Road, Begur Chikkanahalli, Bengaluru, Karnataka. Pin-562149 (India)",
    "locality": "Begur Chikkanahalli",
    "congestion_ratio": 0.82,
    "impact_score": 0.104,
    "reachability": null,
    "priority_rank": 96,
    "ward_no": "",
    "ward_name": "Outside BBMP"
  },
  {
    "lat": 13.0004,
    "lng": 77.5712,
    "raw_lat": 13.0004,
    "raw_lng": 77.5712,
    "snapped": false,
    "snap_confidence": null,
    "violation_count": 585,
    "address": "Sri Venkataranga Ayangar Road, Kadumalleshwara, Malleshwaram, Bengaluru, Karnataka. Pin-560003 (India)",
    "locality": "Malleshwaram",
    "congestion_ratio": 1.05,
    "impact_score": 0.103,
    "reachability": null,
    "priority_rank": 97,
    "ward_no": "64",
    "ward_name": "Kadu Malleshwara"
  },
  {
    "lat": 12.978,
    "lng": 77.5712,
    "raw_lat": 12.978,
    "raw_lng": 77.5712,
    "snapped": false,
    "snap_confidence": null,
    "violation_count": 658,
    "address": "Rao Bahadur DGT Road, Majestic Circle, Majestic, Bengaluru, Karnataka. Pin-560023 (India)",
    "locality": "Majestic",
    "congestion_ratio": 0.91,
    "impact_score": 0.1,
    "reachability": null,
    "priority_rank": 98,
    "ward_no": "133",
    "ward_name": "Gandhinagar"
  },
  {
    "lat": 12.9276,
    "lng": 77.6804,
    "raw_lat": 12.9276,
    "raw_lng": 77.6804,
    "snapped": false,
    "snap_confidence": null,
    "violation_count": 589,
    "address": "Outer Ring Road, Citilights Liberty Apartment, Kariyammana Agrahara, Bengaluru, Karnataka. Pin-560103 (India)",
    "locality": "Kariyammana Agrahara",
    "congestion_ratio": 1.0,
    "impact_score": 0.098,
    "reachability": null,
    "priority_rank": 99,
    "ward_no": "116",
    "ward_name": "Doddakanahalli"
  },
  {
    "lat": 13.1852,
    "lng": 77.6804,
    "raw_lat": 13.1852,
    "raw_lng": 77.6804,
    "snapped": false,
    "snap_confidence": null,
    "violation_count": 623,
    "address": "Unnamed Road, Begur Chikkanahalli, Bengaluru, Karnataka. Pin-562149 (India)",
    "locality": "Begur Chikkanahalli",
    "congestion_ratio": 0.83,
    "impact_score": 0.086,
    "reachability": null,
    "priority_rank": 100,
    "ward_no": "",
    "ward_name": "Outside BBMP"
  }
]