[
  {
    "lat": 13.04822,
    "lng": 77.500725,
    "priority_rank": 1,
    "violation_count": 163,
    "latent_rate": 277.078,
    "priority_score": 1.067,
    "congestion_ratio": 1.59,
    "road_weight": 0.593,
    "blindspot": true,
    "locality": "Bagalakunte",
    "ward_name": "Bagalakunte",
    "ward_no": "18"
  },
  {
    "lat": 12.989411,
    "lng": 77.519595,
    "priority_rank": 2,
    "violation_count": 24,
    "latent_rate": 263.174,
    "priority_score": 0.998,
    "congestion_ratio": 1.57,
    "road_weight": 0.575,
    "blindspot": true,
    "locality": "Vijayanagara Krishnadevaraya",
    "ward_name": "Vijayanagara Krishnadevaraya",
    "ward_no": "45"
  },
  {
    "lat": 12.926261,
    "lng": 77.551621,
    "priority_rank": 3,
    "violation_count": 323,
    "latent_rate": 225.156,
    "priority_score": 0.82,
    "congestion_ratio": 1.53,
    "road_weight": 0.533,
    "blindspot": true,
    "locality": "Vidyapeeta ward",
    "ward_name": "Vidyapeeta ward",
    "ward_no": "216"
  },
  {
    "lat": 12.910951,
    "lng": 77.64403,
    "priority_rank": 4,
    "violation_count": 149,
    "latent_rate": 263.852,
    "priority_score": 0.814,
    "congestion_ratio": 1.38,
    "road_weight": 0.375,
    "blindspot": true,
    "locality": "Agara",
    "ward_name": "Agara",
    "ward_no": "230"
  },
  {
    "lat": 12.991115,
    "lng": 77.652016,
    "priority_rank": 5,
    "violation_count": 155,
    "latent_rate": 263.531,
    "priority_score": 0.795,
    "congestion_ratio": 1.36,
    "road_weight": 0.356,
    "blindspot": true,
    "locality": "Lal Bahadur Nagar",
    "ward_name": "Lal Bahadur Nagar",
    "ward_no": "118"
  },
  {
    "lat": 12.998784,
    "lng": 77.597359,
    "priority_rank": 6,
    "violation_count": 46,
    "latent_rate": 283.589,
    "priority_score": 0.767,
    "congestion_ratio": 1.27,
    "road_weight": 0.267,
    "blindspot": true,
    "locality": "Jayamahal",
    "ward_name": "Jayamahal",
    "ward_no": "127"
  },
  {
    "lat": 13.035039,
    "lng": 77.624459,
    "priority_rank": 7,
    "violation_count": 373,
    "latent_rate": 229.311,
    "priority_score": 0.692,
    "congestion_ratio": 1.36,
    "road_weight": 0.356,
    "blindspot": true,
    "locality": "Nagavara",
    "ward_name": "Nagavara",
    "ward_no": "95"
  },
  {
    "lat": 12.959469,
    "lng": 77.527517,
    "priority_rank": 8,
    "violation_count": 680,
    "latent_rate": 224.441,
    "priority_score": 0.69,
    "congestion_ratio": 1.37,
    "road_weight": 0.372,
    "blindspot": true,
    "locality": "Attiguppe",
    "ward_name": "Attiguppe",
    "ward_no": "161"
  },
  {
    "lat": 12.926141,
    "lng": 77.585306,
    "priority_rank": 9,
    "violation_count": 425,
    "latent_rate": 206.103,
    "priority_score": 0.622,
    "congestion_ratio": 1.36,
    "road_weight": 0.356,
    "blindspot": true,
    "locality": "Byrasandra",
    "ward_name": "Byrasandra",
    "ward_no": "196"
  },
  {
    "lat": 12.896016,
    "lng": 77.635349,
    "priority_rank": 10,
    "violation_count": 99,
    "latent_rate": 152.656,
    "priority_score": 0.592,
    "congestion_ratio": 1.6,
    "road_weight": 0.6,
    "blindspot": true,
    "locality": "Rupenaagrahara",
    "ward_name": "Rupenaagrahara",
    "ward_no": "233"
  },
  {
    "lat": 12.951716,
    "lng": 77.607399,
    "priority_rank": 11,
    "violation_count": 110,
    "latent_rate": 218.15,
    "priority_score": 0.59,
    "congestion_ratio": 1.27,
    "road_weight": 0.267,
    "blindspot": true,
    "locality": "Neelasandra",
    "ward_name": "Neelasandra",
    "ward_no": "183"
  },
  {
    "lat": 12.917555,
    "lng": 77.594788,
    "priority_rank": 12,
    "violation_count": 115,
    "latent_rate": 175.008,
    "priority_score": 0.583,
    "congestion_ratio": 1.44,
    "road_weight": 0.444,
    "blindspot": true,
    "locality": "J P Nagar",
    "ward_name": "J P Nagar",
    "ward_no": "198"
  },
  {
    "lat": 13.092845,
    "lng": 77.594126,
    "priority_rank": 13,
    "violation_count": 361,
    "latent_rate": 150.185,
    "priority_score": 0.554,
    "congestion_ratio": 1.55,
    "road_weight": 0.545,
    "blindspot": true,
    "locality": "Yelahanka Satellite Town",
    "ward_name": "Yelahanka Satellite Town",
    "ward_no": "5"
  },
  {
    "lat": 12.962448,
    "lng": 77.595544,
    "priority_rank": 14,
    "violation_count": 340,
    "latent_rate": 166.596,
    "priority_score": 0.553,
    "congestion_ratio": 1.44,
    "road_weight": 0.441,
    "blindspot": true,
    "locality": "Shantala Nagar",
    "ward_name": "Shantala Nagar",
    "ward_no": "181"
  },
  {
    "lat": 12.986699,
    "lng": 77.690492,
    "priority_rank": 15,
    "violation_count": 26,
    "latent_rate": 134.866,
    "priority_score": 0.505,
    "congestion_ratio": 1.56,
    "road_weight": 0.562,
    "blindspot": true,
    "locality": "Mahadevapura",
    "ward_name": "Mahadevapura",
    "ward_no": "90"
  },
  {
    "lat": 12.971003,
    "lng": 77.594484,
    "priority_rank": 16,
    "violation_count": 181,
    "latent_rate": 147.795,
    "priority_score": 0.5,
    "congestion_ratio": 1.46,
    "road_weight": 0.46,
    "blindspot": false,
    "locality": "Shantala Nagar",
    "ward_name": "Shantala Nagar",
    "ward_no": "181"
  },
  {
    "lat": 12.849944,
    "lng": 77.656839,
    "priority_rank": 17,
    "violation_count": 116,
    "latent_rate": 183.447,
    "priority_score": 0.496,
    "congestion_ratio": 1.27,
    "road_weight": 0.267,
    "blindspot": false,
    "locality": "Outside BBMP",
    "ward_name": "Outside BBMP",
    "ward_no": "nan"
  },
  {
    "lat": 12.895091,
    "lng": 77.598622,
    "priority_rank": 18,
    "violation_count": 168,
    "latent_rate": 148.41,
    "priority_score": 0.494,
    "congestion_ratio": 1.44,
    "road_weight": 0.444,
    "blindspot": true,
    "locality": "Vinayakanagar",
    "ward_name": "Vinayakanagar",
    "ward_no": "240"
  },
  {
    "lat": 13.084574,
    "lng": 77.48569,
    "priority_rank": 19,
    "violation_count": 19,
    "latent_rate": 182.031,
    "priority_score": 0.492,
    "congestion_ratio": 1.27,
    "road_weight": 0.267,
    "blindspot": true,
    "locality": "Outside BBMP",
    "ward_name": "Outside BBMP",
    "ward_no": "nan"
  },
  {
    "lat": 13.023386,
    "lng": 77.591152,
    "priority_rank": 20,
    "violation_count": 101,
    "latent_rate": 179.915,
    "priority_score": 0.486,
    "congestion_ratio": 1.27,
    "road_weight": 0.267,
    "blindspot": false,
    "locality": "Ganga Nagar",
    "ward_name": "Ganga Nagar",
    "ward_no": "72"
  },
  {
    "lat": 12.93672,
    "lng": 77.615572,
    "priority_rank": 21,
    "violation_count": 868,
    "latent_rate": 156.899,
    "priority_score": 0.473,
    "congestion_ratio": 1.36,
    "road_weight": 0.356,
    "blindspot": false,
    "locality": "Adugodi",
    "ward_name": "Adugodi",
    "ward_no": "187"
  },
  {
    "lat": 12.954407,
    "lng": 77.742967,
    "priority_rank": 22,
    "violation_count": 13,
    "latent_rate": 136.642,
    "priority_score": 0.473,
    "congestion_ratio": 1.48,
    "road_weight": 0.481,
    "blindspot": false,
    "locality": "Whitefield",
    "ward_name": "Whitefield",
    "ward_no": "110"
  },
  {
    "lat": 12.910361,
    "lng": 77.514679,
    "priority_rank": 23,
    "violation_count": 26,
    "latent_rate": 155.298,
    "priority_score": 0.469,
    "congestion_ratio": 1.36,
    "road_weight": 0.356,
    "blindspot": true,
    "locality": "Rajarajeshwari Nagar",
    "ward_name": "Rajarajeshwari Nagar",
    "ward_no": "49"
  },
  {
    "lat": 13.066127,
    "lng": 77.594279,
    "priority_rank": 24,
    "violation_count": 49,
    "latent_rate": 126.014,
    "priority_score": 0.467,
    "congestion_ratio": 1.55,
    "road_weight": 0.55,
    "blindspot": false,
    "locality": "Amrutahalli",
    "ward_name": "Amrutahalli",
    "ward_no": "9"
  },
  {
    "lat": 13.00981,
    "lng": 77.48446,
    "priority_rank": 25,
    "violation_count": 19,
    "latent_rate": 150.979,
    "priority_score": 0.456,
    "congestion_ratio": 1.36,
    "road_weight": 0.356,
    "blindspot": true,
    "locality": "Vidyamanyanagar",
    "ward_name": "Vidyamanyanagar",
    "ward_no": "29"
  },
  {
    "lat": 12.804833,
    "lng": 77.698215,
    "priority_rank": 26,
    "violation_count": 20,
    "latent_rate": 121.834,
    "priority_score": 0.454,
    "congestion_ratio": 1.56,
    "road_weight": 0.556,
    "blindspot": false,
    "locality": "Outside BBMP",
    "ward_name": "Outside BBMP",
    "ward_no": "nan"
  },
  {
    "lat": 13.19104,
    "lng": 77.645176,
    "priority_rank": 27,
    "violation_count": 825,
    "latent_rate": 118.336,
    "priority_score": 0.451,
    "congestion_ratio": 1.58,
    "road_weight": 0.581,
    "blindspot": true,
    "locality": "Outside BBMP",
    "ward_name": "Outside BBMP",
    "ward_no": "nan"
  },
  {
    "lat": 12.969886,
    "lng": 77.608308,
    "priority_rank": 28,
    "violation_count": 383,
    "latent_rate": 141.69,
    "priority_score": 0.429,
    "congestion_ratio": 1.36,
    "road_weight": 0.358,
    "blindspot": false,
    "locality": "Shantala Nagar",
    "ward_name": "Shantala Nagar",
    "ward_no": "181"
  },
  {
    "lat": 13.100337,
    "lng": 77.590038,
    "priority_rank": 29,
    "violation_count": 122,
    "latent_rate": 133.261,
    "priority_score": 0.417,
    "congestion_ratio": 1.39,
    "road_weight": 0.386,
    "blindspot": false,
    "locality": "Yelahanka Satellite Town",
    "ward_name": "Yelahanka Satellite Town",
    "ward_no": "5"
  },
  {
    "lat": 12.996799,
    "lng": 77.549189,
    "priority_rank": 30,
    "violation_count": 1891,
    "latent_rate": 125.276,
    "priority_score": 0.416,
    "congestion_ratio": 1.44,
    "road_weight": 0.441,
    "blindspot": false,
    "locality": "Rajaji Nagar",
    "ward_name": "Rajaji Nagar",
    "ward_no": "141"
  },
  {
    "lat": 13.008451,
    "lng": 77.582475,
    "priority_rank": 31,
    "violation_count": 15,
    "latent_rate": 121.105,
    "priority_score": 0.408,
    "congestion_ratio": 1.45,
    "road_weight": 0.454,
    "blindspot": false,
    "locality": "Aramane Nagara",
    "ward_name": "Aramane Nagara",
    "ward_no": "60"
  },
  {
    "lat": 12.994465,
    "lng": 77.610528,
    "priority_rank": 32,
    "violation_count": 405,
    "latent_rate": 139.31,
    "priority_score": 0.405,
    "congestion_ratio": 1.32,
    "road_weight": 0.324,
    "blindspot": false,
    "locality": "Pulikeshinagar",
    "ward_name": "Pulikeshinagar",
    "ward_no": "80"
  },
  {
    "lat": 13.048918,
    "lng": 77.630113,
    "priority_rank": 33,
    "violation_count": 54,
    "latent_rate": 120.324,
    "priority_score": 0.401,
    "congestion_ratio": 1.44,
    "road_weight": 0.444,
    "blindspot": false,
    "locality": "Thanisandra",
    "ward_name": "Thanisandra",
    "ward_no": "7"
  },
  {
    "lat": 12.999118,
    "lng": 77.48789,
    "priority_rank": 34,
    "violation_count": 54,
    "latent_rate": 131.58,
    "priority_score": 0.397,
    "congestion_ratio": 1.36,
    "road_weight": 0.356,
    "blindspot": false,
    "locality": "Vidyamanyanagar",
    "ward_name": "Vidyamanyanagar",
    "ward_no": "29"
  },
  {
    "lat": 13.032016,
    "lng": 77.564817,
    "priority_rank": 35,
    "violation_count": 40,
    "latent_rate": 145.335,
    "priority_score": 0.393,
    "congestion_ratio": 1.27,
    "road_weight": 0.267,
    "blindspot": false,
    "locality": "Aramane Nagara",
    "ward_name": "Aramane Nagara",
    "ward_no": "60"
  },
  {
    "lat": 12.975237,
    "lng": 77.606592,
    "priority_rank": 36,
    "violation_count": 406,
    "latent_rate": 125.113,
    "priority_score": 0.391,
    "congestion_ratio": 1.39,
    "road_weight": 0.385,
    "blindspot": false,
    "locality": "Shantala Nagar",
    "ward_name": "Shantala Nagar",
    "ward_no": "181"
  },
  {
    "lat": 13.047023,
    "lng": 77.548221,
    "priority_rank": 37,
    "violation_count": 39,
    "latent_rate": 139.005,
    "priority_score": 0.376,
    "congestion_ratio": 1.27,
    "road_weight": 0.267,
    "blindspot": false,
    "locality": "Veeramadakari",
    "ward_name": "Veeramadakari",
    "ward_no": "40"
  },
  {
    "lat": 12.95659,
    "lng": 77.732155,
    "priority_rank": 38,
    "violation_count": 82,
    "latent_rate": 111.227,
    "priority_score": 0.37,
    "congestion_ratio": 1.44,
    "road_weight": 0.444,
    "blindspot": false,
    "locality": "Whitefield",
    "ward_name": "Whitefield",
    "ward_no": "110"
  },
  {
    "lat": 13.051356,
    "lng": 77.526637,
    "priority_rank": 39,
    "violation_count": 249,
    "latent_rate": 120.044,
    "priority_score": 0.362,
    "congestion_ratio": 1.36,
    "road_weight": 0.356,
    "blindspot": false,
    "locality": "Shettihalli",
    "ward_name": "Shettihalli",
    "ward_no": "17"
  },
  {
    "lat": 12.897993,
    "lng": 77.67512,
    "priority_rank": 40,
    "violation_count": 313,
    "latent_rate": 119.407,
    "priority_score": 0.36,
    "congestion_ratio": 1.36,
    "road_weight": 0.356,
    "blindspot": false,
    "locality": "Doddakanahalli",
    "ward_name": "Doddakanahalli",
    "ward_no": "116"
  },
  {
    "lat": 13.04382,
    "lng": 77.547566,
    "priority_rank": 41,
    "violation_count": 14,
    "latent_rate": 97.589,
    "priority_score": 0.356,
    "congestion_ratio": 1.53,
    "road_weight": 0.533,
    "blindspot": false,
    "locality": "Veeramadakari",
    "ward_name": "Veeramadakari",
    "ward_no": "40"
  },
  {
    "lat": 12.908096,
    "lng": 77.550717,
    "priority_rank": 42,
    "violation_count": 59,
    "latent_rate": 117.366,
    "priority_score": 0.354,
    "congestion_ratio": 1.36,
    "road_weight": 0.356,
    "blindspot": false,
    "locality": "Vasanthpura",
    "ward_name": "Vasanthpura",
    "ward_no": "219"
  },
  {
    "lat": 12.88333,
    "lng": 77.599026,
    "priority_rank": 43,
    "violation_count": 37,
    "latent_rate": 115.283,
    "priority_score": 0.348,
    "congestion_ratio": 1.36,
    "road_weight": 0.356,
    "blindspot": false,
    "locality": "Hulimavu",
    "ward_name": "Hulimavu",
    "ward_no": "239"
  },
  {
    "lat": 12.959797,
    "lng": 77.732814,
    "priority_rank": 44,
    "violation_count": 23,
    "latent_rate": 125.978,
    "priority_score": 0.341,
    "congestion_ratio": 1.27,
    "road_weight": 0.267,
    "blindspot": false,
    "locality": "Whitefield",
    "ward_name": "Whitefield",
    "ward_no": "110"
  },
  {
    "lat": 13.188814,
    "lng": 77.681299,
    "priority_rank": 45,
    "violation_count": 620,
    "latent_rate": 102.055,
    "priority_score": 0.34,
    "congestion_ratio": 1.44,
    "road_weight": 0.444,
    "blindspot": false,
    "locality": "Outside BBMP",
    "ward_name": "Outside BBMP",
    "ward_no": "nan"
  },
  {
    "lat": 12.883523,
    "lng": 77.548504,
    "priority_rank": 46,
    "violation_count": 32,
    "latent_rate": 93.257,
    "priority_score": 0.34,
    "congestion_ratio": 1.53,
    "road_weight": 0.533,
    "blindspot": false,
    "locality": "Vasanthpura",
    "ward_name": "Vasanthpura",
    "ward_no": "219"
  },
  {
    "lat": 12.985416,
    "lng": 77.746518,
    "priority_rank": 47,
    "violation_count": 106,
    "latent_rate": 99.825,
    "priority_score": 0.34,
    "congestion_ratio": 1.47,
    "road_weight": 0.465,
    "blindspot": false,
    "locality": "Belathur",
    "ward_name": "Belathur",
    "ward_no": "105"
  },
  {
    "lat": 12.925375,
    "lng": 77.498096,
    "priority_rank": 48,
    "violation_count": 17,
    "latent_rate": 92.49,
    "priority_score": 0.337,
    "congestion_ratio": 1.53,
    "road_weight": 0.533,
    "blindspot": false,
    "locality": "Kengeri",
    "ward_name": "Kengeri",
    "ward_no": "33"
  },
  {
    "lat": 13.044654,
    "lng": 77.626428,
    "priority_rank": 49,
    "violation_count": 97,
    "latent_rate": 100.368,
    "priority_score": 0.334,
    "congestion_ratio": 1.44,
    "road_weight": 0.444,
    "blindspot": false,
    "locality": "Jakkuru",
    "ward_name": "Jakkuru",
    "ward_no": "8"
  },
  {
    "lat": 12.911533,
    "lng": 77.484045,
    "priority_rank": 50,
    "violation_count": 11,
    "latent_rate": 87.952,
    "priority_score": 0.325,
    "congestion_ratio": 1.55,
    "road_weight": 0.546,
    "blindspot": false,
    "locality": "Kengeri",
    "ward_name": "Kengeri",
    "ward_no": "33"
  },
  {
    "lat": 13.104579,
    "lng": 77.602151,
    "priority_rank": 51,
    "violation_count": 11,
    "latent_rate": 88.071,
    "priority_score": 0.325,
    "congestion_ratio": 1.54,
    "road_weight": 0.545,
    "blindspot": false,
    "locality": "Kempegowda Ward",
    "ward_name": "Kempegowda Ward",
    "ward_no": "1"
  },
  {
    "lat": 12.940164,
    "lng": 77.548846,
    "priority_rank": 52,
    "violation_count": 9,
    "latent_rate": 119.685,
    "priority_score": 0.324,
    "congestion_ratio": 1.27,
    "road_weight": 0.267,
    "blindspot": false,
    "locality": "Girinagar",
    "ward_name": "Girinagar",
    "ward_no": "214"
  },
  {
    "lat": 12.970825,
    "lng": 77.645047,
    "priority_rank": 53,
    "violation_count": 383,
    "latent_rate": 118.161,
    "priority_score": 0.319,
    "congestion_ratio": 1.27,
    "road_weight": 0.267,
    "blindspot": false,
    "locality": "Old Thippasandra",
    "ward_name": "Old Thippasandra",
    "ward_no": "121"
  },
  {
    "lat": 12.966276,
    "lng": 77.717256,
    "priority_rank": 54,
    "violation_count": 876,
    "latent_rate": 95.049,
    "priority_score": 0.317,
    "congestion_ratio": 1.44,
    "road_weight": 0.444,
    "blindspot": false,
    "locality": "AECS Layout",
    "ward_name": "AECS Layout",
    "ward_no": "109"
  },
  {
    "lat": 13.083256,
    "lng": 77.583731,
    "priority_rank": 55,
    "violation_count": 7,
    "latent_rate": 145.025,
    "priority_score": 0.316,
    "congestion_ratio": 1.12,
    "road_weight": 0.119,
    "blindspot": false,
    "locality": "Byatarayanapura",
    "ward_name": "Byatarayanapura",
    "ward_no": "11"
  },
  {
    "lat": 13.161237,
    "lng": 77.594073,
    "priority_rank": 56,
    "violation_count": 16,
    "latent_rate": 104.533,
    "priority_score": 0.315,
    "congestion_ratio": 1.36,
    "road_weight": 0.356,
    "blindspot": false,
    "locality": "Outside BBMP",
    "ward_name": "Outside BBMP",
    "ward_no": "nan"
  },
  {
    "lat": 12.907812,
    "lng": 77.62652,
    "priority_rank": 57,
    "violation_count": 11,
    "latent_rate": 81.265,
    "priority_score": 0.314,
    "congestion_ratio": 1.6,
    "road_weight": 0.597,
    "blindspot": false,
    "locality": "Rupenaagrahara",
    "ward_name": "Rupenaagrahara",
    "ward_no": "233"
  },
  {
    "lat": 13.122678,
    "lng": 77.628352,
    "priority_rank": 58,
    "violation_count": 12,
    "latent_rate": 103.047,
    "priority_score": 0.311,
    "congestion_ratio": 1.36,
    "road_weight": 0.356,
    "blindspot": false,
    "locality": "Kogilu",
    "ward_name": "Kogilu",
    "ward_no": "6"
  },
  {
    "lat": 12.948855,
    "lng": 77.505697,
    "priority_rank": 59,
    "violation_count": 7,
    "latent_rate": 102.989,
    "priority_score": 0.311,
    "congestion_ratio": 1.36,
    "road_weight": 0.356,
    "blindspot": false,
    "locality": "Jnana Bharathi",
    "ward_name": "Jnana Bharathi",
    "ward_no": "48"
  },
  {
    "lat": 12.979557,
    "lng": 77.593424,
    "priority_rank": 60,
    "violation_count": 213,
    "latent_rate": 80.569,
    "priority_score": 0.308,
    "congestion_ratio": 1.59,
    "road_weight": 0.586,
    "blindspot": false,
    "locality": "Sampangiram Nagar",
    "ward_name": "Sampangiram Nagar",
    "ward_no": "129"
  },
  {
    "lat": 12.972032,
    "lng": 77.605936,
    "priority_rank": 61,
    "violation_count": 334,
    "latent_rate": 86.437,
    "priority_score": 0.307,
    "congestion_ratio": 1.51,
    "road_weight": 0.506,
    "blindspot": false,
    "locality": "Shantala Nagar",
    "ward_name": "Shantala Nagar",
    "ward_no": "181"
  },
  {
    "lat": 13.012989,
    "lng": 77.493529,
    "priority_rank": 62,
    "violation_count": 21,
    "latent_rate": 112.77,
    "priority_score": 0.305,
    "congestion_ratio": 1.27,
    "road_weight": 0.267,
    "blindspot": false,
    "locality": "Vidyamanyanagar",
    "ward_name": "Vidyamanyanagar",
    "ward_no": "29"
  },
  {
    "lat": 13.034084,
    "lng": 77.58772,
    "priority_rank": 63,
    "violation_count": 1129,
    "latent_rate": 76.595,
    "priority_score": 0.303,
    "congestion_ratio": 1.62,
    "road_weight": 0.622,
    "blindspot": false,
    "locality": "Sanjaya Nagar",
    "ward_name": "Sanjaya Nagar",
    "ward_no": "67"
  },
  {
    "lat": 12.81234,
    "lng": 77.694129,
    "priority_rank": 64,
    "violation_count": 7,
    "latent_rate": 79.867,
    "priority_score": 0.301,
    "congestion_ratio": 1.57,
    "road_weight": 0.569,
    "blindspot": false,
    "locality": "Outside BBMP",
    "ward_name": "Outside BBMP",
    "ward_no": "nan"
  },
  {
    "lat": 13.024622,
    "lng": 77.535215,
    "priority_rank": 65,
    "violation_count": 9,
    "latent_rate": 80.584,
    "priority_score": 0.298,
    "congestion_ratio": 1.55,
    "road_weight": 0.548,
    "blindspot": false,
    "locality": "Chatrapati Shivaji",
    "ward_name": "Chatrapati Shivaji",
    "ward_no": "36"
  },
  {
    "lat": 12.904737,
    "lng": 77.592166,
    "priority_rank": 66,
    "violation_count": 30,
    "latent_rate": 80.856,
    "priority_score": 0.295,
    "congestion_ratio": 1.53,
    "road_weight": 0.533,
    "blindspot": false,
    "locality": "Vinayakanagar",
    "ward_name": "Vinayakanagar",
    "ward_no": "240"
  },
  {
    "lat": 13.034669,
    "lng": 77.734108,
    "priority_rank": 67,
    "violation_count": 58,
    "latent_rate": 80.536,
    "priority_score": 0.293,
    "congestion_ratio": 1.53,
    "road_weight": 0.533,
    "blindspot": false,
    "locality": "Outside BBMP",
    "ward_name": "Outside BBMP",
    "ward_no": "nan"
  },
  {
    "lat": 12.87074,
    "lng": 77.537468,
    "priority_rank": 68,
    "violation_count": 35,
    "latent_rate": 80.246,
    "priority_score": 0.292,
    "congestion_ratio": 1.53,
    "road_weight": 0.533,
    "blindspot": false,
    "locality": "Hemmigepura",
    "ward_name": "Hemmigepura",
    "ward_no": "35"
  },
  {
    "lat": 12.992052,
    "lng": 77.688776,
    "priority_rank": 69,
    "violation_count": 23,
    "latent_rate": 79.616,
    "priority_score": 0.291,
    "congestion_ratio": 1.54,
    "road_weight": 0.538,
    "blindspot": false,
    "locality": "Garudachar Playa",
    "ward_name": "Garudachar Playa",
    "ward_no": "107"
  },
  {
    "lat": 12.988402,
    "lng": 77.499737,
    "priority_rank": 70,
    "violation_count": 209,
    "latent_rate": 86.907,
    "priority_score": 0.289,
    "congestion_ratio": 1.44,
    "road_weight": 0.444,
    "blindspot": false,
    "locality": "Sir M. Vishweshwaraiah",
    "ward_name": "Sir M. Vishweshwaraiah",
    "ward_no": "46"
  },
  {
    "lat": 12.913678,
    "lng": 77.481676,
    "priority_rank": 71,
    "violation_count": 57,
    "latent_rate": 86.649,
    "priority_score": 0.289,
    "congestion_ratio": 1.44,
    "road_weight": 0.444,
    "blindspot": false,
    "locality": "Bande Mutt",
    "ward_name": "Bande Mutt",
    "ward_no": "34"
  },
  {
    "lat": 12.886332,
    "lng": 77.650234,
    "priority_rank": 72,
    "violation_count": 28,
    "latent_rate": 106.121,
    "priority_score": 0.287,
    "congestion_ratio": 1.27,
    "road_weight": 0.267,
    "blindspot": false,
    "locality": "Kudlu",
    "ward_name": "Kudlu",
    "ward_no": "243"
  },
  {
    "lat": 12.948601,
    "lng": 77.581471,
    "priority_rank": 73,
    "violation_count": 108,
    "latent_rate": 94.172,
    "priority_score": 0.283,
    "congestion_ratio": 1.35,
    "road_weight": 0.352,
    "blindspot": false,
    "locality": "Vishveshwara Puram",
    "ward_name": "Vishveshwara Puram",
    "ward_no": "174"
  },
  {
    "lat": 13.182381,
    "lng": 77.688423,
    "priority_rank": 74,
    "violation_count": 31,
    "latent_rate": 79.514,
    "priority_score": 0.28,
    "congestion_ratio": 1.5,
    "road_weight": 0.498,
    "blindspot": false,
    "locality": "Outside BBMP",
    "ward_name": "Outside BBMP",
    "ward_no": "nan"
  },
  {
    "lat": 13.048011,
    "lng": 77.576519,
    "priority_rank": 75,
    "violation_count": 909,
    "latent_rate": 76.406,
    "priority_score": 0.279,
    "congestion_ratio": 1.54,
    "road_weight": 0.537,
    "blindspot": false,
    "locality": "Kodigehalli",
    "ward_name": "Kodigehalli",
    "ward_no": "12"
  },
  {
    "lat": 12.948163,
    "lng": 77.69947,
    "priority_rank": 76,
    "violation_count": 366,
    "latent_rate": 76.501,
    "priority_score": 0.279,
    "congestion_ratio": 1.53,
    "road_weight": 0.533,
    "blindspot": false,
    "locality": "Marathahalli",
    "ward_name": "Marathahalli",
    "ward_no": "114"
  },
  {
    "lat": 12.862218,
    "lng": 77.530112,
    "priority_rank": 77,
    "violation_count": 72,
    "latent_rate": 76.437,
    "priority_score": 0.279,
    "congestion_ratio": 1.53,
    "road_weight": 0.533,
    "blindspot": false,
    "locality": "Hemmigepura",
    "ward_name": "Hemmigepura",
    "ward_no": "35"
  },
  {
    "lat": 12.916824,
    "lng": 77.499157,
    "priority_rank": 78,
    "violation_count": 51,
    "latent_rate": 100.761,
    "priority_score": 0.278,
    "congestion_ratio": 1.28,
    "road_weight": 0.282,
    "blindspot": false,
    "locality": "Bande Mutt",
    "ward_name": "Bande Mutt",
    "ward_no": "34"
  },
  {
    "lat": 12.909303,
    "lng": 77.511655,
    "priority_rank": 79,
    "violation_count": 5,
    "latent_rate": 91.778,
    "priority_score": 0.277,
    "congestion_ratio": 1.36,
    "road_weight": 0.356,
    "blindspot": false,
    "locality": "Rajarajeshwari Nagar",
    "ward_name": "Rajarajeshwari Nagar",
    "ward_no": "49"
  },
  {
    "lat": 12.995688,
    "lng": 77.563007,
    "priority_rank": 80,
    "violation_count": 549,
    "latent_rate": 91.337,
    "priority_score": 0.276,
    "congestion_ratio": 1.36,
    "road_weight": 0.356,
    "blindspot": false,
    "locality": "Gayithri Nagar",
    "ward_name": "Gayithri Nagar",
    "ward_no": "63"
  },
  {
    "lat": 12.986207,
    "lng": 77.518941,
    "priority_rank": 81,
    "violation_count": 189,
    "latent_rate": 74.678,
    "priority_score": 0.274,
    "congestion_ratio": 1.54,
    "road_weight": 0.541,
    "blindspot": false,
    "locality": "Vijayanagara Krishnadevaraya",
    "ward_name": "Vijayanagara Krishnadevaraya",
    "ward_no": "45"
  },
  {
    "lat": 13.04362,
    "lng": 77.61497,
    "priority_rank": 82,
    "violation_count": 7,
    "latent_rate": 68.869,
    "priority_score": 0.273,
    "congestion_ratio": 1.62,
    "road_weight": 0.622,
    "blindspot": false,
    "locality": "Jakkuru",
    "ward_name": "Jakkuru",
    "ward_no": "8"
  },
  {
    "lat": 13.093951,
    "lng": 77.580299,
    "priority_rank": 83,
    "violation_count": 12,
    "latent_rate": 91.989,
    "priority_score": 0.27,
    "congestion_ratio": 1.33,
    "road_weight": 0.334,
    "blindspot": false,
    "locality": "Someshwara Ward",
    "ward_name": "Someshwara Ward",
    "ward_no": "3"
  },
  {
    "lat": 12.931552,
    "lng": 77.566747,
    "priority_rank": 84,
    "violation_count": 5,
    "latent_rate": 88.099,
    "priority_score": 0.266,
    "congestion_ratio": 1.36,
    "road_weight": 0.356,
    "blindspot": false,
    "locality": "Basavanagudi",
    "ward_name": "Basavanagudi",
    "ward_no": "210"
  },
  {
    "lat": 12.986156,
    "lng": 77.535779,
    "priority_rank": 85,
    "violation_count": 91,
    "latent_rate": 87.317,
    "priority_score": 0.263,
    "congestion_ratio": 1.36,
    "road_weight": 0.356,
    "blindspot": false,
    "locality": "Kamakshipalya",
    "ward_name": "Kamakshipalya",
    "ward_no": "145"
  },
  {
    "lat": 12.947513,
    "lng": 77.586868,
    "priority_rank": 86,
    "violation_count": 54,
    "latent_rate": 87.209,
    "priority_score": 0.263,
    "congestion_ratio": 1.36,
    "road_weight": 0.356,
    "blindspot": false,
    "locality": "Vishveshwara Puram",
    "ward_name": "Vishveshwara Puram",
    "ward_no": "174"
  },
  {
    "lat": 12.876716,
    "lng": 77.648264,
    "priority_rank": 87,
    "violation_count": 285,
    "latent_rate": 67.664,
    "priority_score": 0.262,
    "congestion_ratio": 1.6,
    "road_weight": 0.599,
    "blindspot": false,
    "locality": "HSR - Singasandra",
    "ward_name": "HSR - Singasandra",
    "ward_no": "232"
  },
  {
    "lat": 12.946656,
    "lng": 77.524899,
    "priority_rank": 88,
    "violation_count": 27,
    "latent_rate": 70.419,
    "priority_score": 0.257,
    "congestion_ratio": 1.54,
    "road_weight": 0.537,
    "blindspot": false,
    "locality": "Nayandahalli",
    "ward_name": "Nayandahalli",
    "ward_no": "155"
  },
  {
    "lat": 12.998464,
    "lng": 77.690091,
    "priority_rank": 89,
    "violation_count": 52,
    "latent_rate": 71.154,
    "priority_score": 0.256,
    "congestion_ratio": 1.52,
    "road_weight": 0.519,
    "blindspot": false,
    "locality": "Devasandra",
    "ward_name": "Devasandra",
    "ward_no": "89"
  },
  {
    "lat": 13.027727,
    "lng": 77.569559,
    "priority_rank": 90,
    "violation_count": 80,
    "latent_rate": 94.17,
    "priority_score": 0.255,
    "congestion_ratio": 1.27,
    "road_weight": 0.267,
    "blindspot": false,
    "locality": "Aramane Nagara",
    "ward_name": "Aramane Nagara",
    "ward_no": "60"
  },
  {
    "lat": 12.963506,
    "lng": 77.59857,
    "priority_rank": 91,
    "violation_count": 633,
    "latent_rate": 76.299,
    "priority_score": 0.253,
    "congestion_ratio": 1.44,
    "road_weight": 0.439,
    "blindspot": false,
    "locality": "Shantala Nagar",
    "ward_name": "Shantala Nagar",
    "ward_no": "181"
  },
  {
    "lat": 12.973288,
    "lng": 77.55,
    "priority_rank": 92,
    "violation_count": 2514,
    "latent_rate": 73.062,
    "priority_score": 0.243,
    "congestion_ratio": 1.44,
    "road_weight": 0.444,
    "blindspot": false,
    "locality": "Vijayanagar",
    "ward_name": "Vijayanagar",
    "ward_no": "157"
  },
  {
    "lat": 13.048107,
    "lng": 77.542825,
    "priority_rank": 93,
    "violation_count": 85,
    "latent_rate": 89.931,
    "priority_score": 0.243,
    "congestion_ratio": 1.27,
    "road_weight": 0.267,
    "blindspot": false,
    "locality": "Veeramadakari",
    "ward_name": "Veeramadakari",
    "ward_no": "40"
  },
  {
    "lat": 12.964651,
    "lng": 77.576325,
    "priority_rank": 94,
    "violation_count": 8585,
    "latent_rate": 66.61,
    "priority_score": 0.243,
    "congestion_ratio": 1.53,
    "road_weight": 0.533,
    "blindspot": false,
    "locality": "Chamrajapet",
    "ward_name": "Chamrajapet",
    "ward_no": "165"
  },
  {
    "lat": 12.912506,
    "lng": 77.51231,
    "priority_rank": 95,
    "violation_count": 3,
    "latent_rate": 79.701,
    "priority_score": 0.24,
    "congestion_ratio": 1.36,
    "road_weight": 0.356,
    "blindspot": false,
    "locality": "Hemmigepura",
    "ward_name": "Hemmigepura",
    "ward_no": "35"
  },
  {
    "lat": 12.945705,
    "lng": 77.488213,
    "priority_rank": 96,
    "violation_count": 9,
    "latent_rate": 88.75,
    "priority_score": 0.24,
    "congestion_ratio": 1.27,
    "road_weight": 0.267,
    "blindspot": false,
    "locality": "Ullal",
    "ward_name": "Ullal",
    "ward_no": "32"
  },
  {
    "lat": 12.987598,
    "lng": 77.735705,
    "priority_rank": 97,
    "violation_count": 553,
    "latent_rate": 74.751,
    "priority_score": 0.239,
    "congestion_ratio": 1.41,
    "road_weight": 0.407,
    "blindspot": false,
    "locality": "Belathur",
    "ward_name": "Belathur",
    "ward_no": "105"
  },
  {
    "lat": 12.983763,
    "lng": 77.613959,
    "priority_rank": 98,
    "violation_count": 144,
    "latent_rate": 77.473,
    "priority_score": 0.236,
    "congestion_ratio": 1.36,
    "road_weight": 0.362,
    "blindspot": false,
    "locality": "Ulsoor",
    "ward_name": "Ulsoor",
    "ward_no": "131"
  },
  {
    "lat": 13.071476,
    "lng": 77.592563,
    "priority_rank": 99,
    "violation_count": 358,
    "latent_rate": 58.338,
    "priority_score": 0.234,
    "congestion_ratio": 1.64,
    "road_weight": 0.636,
    "blindspot": false,
    "locality": "Byatarayanapura",
    "ward_name": "Byatarayanapura",
    "ward_no": "11"
  },
  {
    "lat": 12.967827,
    "lng": 77.585404,
    "priority_rank": 100,
    "violation_count": 151,
    "latent_rate": 69.609,
    "priority_score": 0.233,
    "congestion_ratio": 1.45,
    "road_weight": 0.447,
    "blindspot": false,
    "locality": "Sampangiram Nagar",
    "ward_name": "Sampangiram Nagar",
    "ward_no": "129"
  },
  {
    "lat": 13.098216,
    "lng": 77.583982,
    "priority_rank": 101,
    "violation_count": 44,
    "latent_rate": 90.406,
    "priority_score": 0.232,
    "congestion_ratio": 1.23,
    "road_weight": 0.229,
    "blindspot": false,
    "locality": "Yelahanka Satellite Town",
    "ward_name": "Yelahanka Satellite Town",
    "ward_no": "5"
  },
  {
    "lat": 13.197326,
    "lng": 77.69712,
    "priority_rank": 102,
    "violation_count": 1,
    "latent_rate": 43.704,
    "priority_score": 0.231,
    "congestion_ratio": 2.0,
    "road_weight": 1.0,
    "blindspot": false,
    "locality": "Outside BBMP",
    "ward_name": "Outside BBMP",
    "ward_no": "nan"
  },
  {
    "lat": 12.93593,
    "lng": 77.536748,
    "priority_rank": 103,
    "violation_count": 241,
    "latent_rate": 63.015,
    "priority_score": 0.23,
    "congestion_ratio": 1.53,
    "road_weight": 0.533,
    "blindspot": false,
    "locality": "Veerabhadranagar",
    "ward_name": "Veerabhadranagar",
    "ward_no": "163"
  },
  {
    "lat": 13.047093,
    "lng": 77.522957,
    "priority_rank": 104,
    "violation_count": 38,
    "latent_rate": 76.048,
    "priority_score": 0.229,
    "congestion_ratio": 1.36,
    "road_weight": 0.356,
    "blindspot": false,
    "locality": "Veeramadakari",
    "ward_name": "Veeramadakari",
    "ward_no": "40"
  },
  {
    "lat": 13.002321,
    "lng": 77.488544,
    "priority_rank": 105,
    "violation_count": 3,
    "latent_rate": 75.891,
    "priority_score": 0.229,
    "congestion_ratio": 1.36,
    "road_weight": 0.356,
    "blindspot": false,
    "locality": "Vidyamanyanagar",
    "ward_name": "Vidyamanyanagar",
    "ward_no": "29"
  },
  {
    "lat": 13.062923,
    "lng": 77.593623,
    "priority_rank": 106,
    "violation_count": 152,
    "latent_rate": 61.041,
    "priority_score": 0.228,
    "congestion_ratio": 1.56,
    "road_weight": 0.56,
    "blindspot": false,
    "locality": "Amrutahalli",
    "ward_name": "Amrutahalli",
    "ward_no": "9"
  },
  {
    "lat": 12.93696,
    "lng": 77.548191,
    "priority_rank": 107,
    "violation_count": 7,
    "latent_rate": 75.134,
    "priority_score": 0.227,
    "congestion_ratio": 1.36,
    "road_weight": 0.356,
    "blindspot": false,
    "locality": "Girinagar",
    "ward_name": "Girinagar",
    "ward_no": "214"
  },
  {
    "lat": 12.905156,
    "lng": 77.474326,
    "priority_rank": 108,
    "violation_count": 3,
    "latent_rate": 60.433,
    "priority_score": 0.227,
    "congestion_ratio": 1.56,
    "road_weight": 0.563,
    "blindspot": false,
    "locality": "Hemmigepura",
    "ward_name": "Hemmigepura",
    "ward_no": "35"
  },
  {
    "lat": 12.960528,
    "lng": 77.530542,
    "priority_rank": 109,
    "violation_count": 288,
    "latent_rate": 74.068,
    "priority_score": 0.225,
    "congestion_ratio": 1.36,
    "road_weight": 0.361,
    "blindspot": false,
    "locality": "Attiguppe",
    "ward_name": "Attiguppe",
    "ward_no": "161"
  },
  {
    "lat": 12.955949,
    "lng": 77.619509,
    "priority_rank": 110,
    "violation_count": 8,
    "latent_rate": 74.254,
    "priority_score": 0.224,
    "congestion_ratio": 1.36,
    "road_weight": 0.356,
    "blindspot": false,
    "locality": "Vannarapete",
    "ward_name": "Vannarapete",
    "ward_no": "184"
  },
  {
    "lat": 13.0331,
    "lng": 77.55942,
    "priority_rank": 111,
    "violation_count": 142,
    "latent_rate": 73.794,
    "priority_score": 0.223,
    "congestion_ratio": 1.36,
    "road_weight": 0.356,
    "blindspot": false,
    "locality": "Mattikere",
    "ward_name": "Mattikere",
    "ward_no": "59"
  },
  {
    "lat": 13.018037,
    "lng": 77.592868,
    "priority_rank": 112,
    "violation_count": 79,
    "latent_rate": 82.171,
    "priority_score": 0.222,
    "congestion_ratio": 1.27,
    "road_weight": 0.267,
    "blindspot": false,
    "locality": "Chamundi Nagara",
    "ward_name": "Chamundi Nagara",
    "ward_no": "71"
  },
  {
    "lat": 13.120579,
    "lng": 77.613862,
    "priority_rank": 113,
    "violation_count": 40,
    "latent_rate": 73.212,
    "priority_score": 0.221,
    "congestion_ratio": 1.36,
    "road_weight": 0.356,
    "blindspot": false,
    "locality": "Kogilu",
    "ward_name": "Kogilu",
    "ward_no": "6"
  },
  {
    "lat": 12.882691,
    "lng": 77.750766,
    "priority_rank": 114,
    "violation_count": 18,
    "latent_rate": 65.997,
    "priority_score": 0.22,
    "congestion_ratio": 1.44,
    "road_weight": 0.444,
    "blindspot": false,
    "locality": "Outside BBMP",
    "ward_name": "Outside BBMP",
    "ward_no": "nan"
  },
  {
    "lat": 12.944957,
    "lng": 77.698813,
    "priority_rank": 115,
    "violation_count": 285,
    "latent_rate": 58.887,
    "priority_score": 0.22,
    "congestion_ratio": 1.56,
    "road_weight": 0.558,
    "blindspot": false,
    "locality": "Marathahalli",
    "ward_name": "Marathahalli",
    "ward_no": "114"
  },
  {
    "lat": 12.963477,
    "lng": 77.606996,
    "priority_rank": 116,
    "violation_count": 8,
    "latent_rate": 64.032,
    "priority_score": 0.218,
    "congestion_ratio": 1.47,
    "road_weight": 0.467,
    "blindspot": false,
    "locality": "Neelasandra",
    "ward_name": "Neelasandra",
    "ward_no": "183"
  },
  {
    "lat": 12.839308,
    "lng": 77.643416,
    "priority_rank": 117,
    "violation_count": 17,
    "latent_rate": 79.933,
    "priority_score": 0.216,
    "congestion_ratio": 1.27,
    "road_weight": 0.267,
    "blindspot": false,
    "locality": "Outside BBMP",
    "ward_name": "Outside BBMP",
    "ward_no": "nan"
  },
  {
    "lat": 12.971197,
    "lng": 77.53553,
    "priority_rank": 118,
    "violation_count": 125,
    "latent_rate": 64.214,
    "priority_score": 0.214,
    "congestion_ratio": 1.44,
    "road_weight": 0.444,
    "blindspot": false,
    "locality": "Marenahalli",
    "ward_name": "Marenahalli",
    "ward_no": "150"
  },
  {
    "lat": 13.030775,
    "lng": 77.620774,
    "priority_rank": 119,
    "violation_count": 17,
    "latent_rate": 70.514,
    "priority_score": 0.213,
    "congestion_ratio": 1.36,
    "road_weight": 0.356,
    "blindspot": false,
    "locality": "Nagavara",
    "ward_name": "Nagavara",
    "ward_no": "95"
  },
  {
    "lat": 12.9488,
    "lng": 77.52253,
    "priority_rank": 120,
    "violation_count": 80,
    "latent_rate": 57.571,
    "priority_score": 0.21,
    "congestion_ratio": 1.54,
    "road_weight": 0.536,
    "blindspot": false,
    "locality": "Nayandahalli",
    "ward_name": "Nayandahalli",
    "ward_no": "155"
  },
  {
    "lat": 13.197347,
    "lng": 77.68868,
    "priority_rank": 121,
    "violation_count": 4,
    "latent_rate": 39.529,
    "priority_score": 0.209,
    "congestion_ratio": 2.0,
    "road_weight": 1.0,
    "blindspot": false,
    "locality": "Outside BBMP",
    "ward_name": "Outside BBMP",
    "ward_no": "nan"
  },
  {
    "lat": 12.952257,
    "lng": 77.745341,
    "priority_rank": 122,
    "violation_count": 18,
    "latent_rate": 56.476,
    "priority_score": 0.206,
    "congestion_ratio": 1.54,
    "road_weight": 0.537,
    "blindspot": false,
    "locality": "Varthuru",
    "ward_name": "Varthuru",
    "ward_no": "112"
  },
  {
    "lat": 12.932132,
    "lng": 77.696183,
    "priority_rank": 123,
    "violation_count": 170,
    "latent_rate": 61.989,
    "priority_score": 0.206,
    "congestion_ratio": 1.44,
    "road_weight": 0.444,
    "blindspot": false,
    "locality": "Marathahalli",
    "ward_name": "Marathahalli",
    "ward_no": "114"
  },
  {
    "lat": 12.940249,
    "lng": 77.523591,
    "priority_rank": 124,
    "violation_count": 182,
    "latent_rate": 56.587,
    "priority_score": 0.206,
    "congestion_ratio": 1.53,
    "road_weight": 0.533,
    "blindspot": false,
    "locality": "Nayandahalli",
    "ward_name": "Nayandahalli",
    "ward_no": "155"
  },
  {
    "lat": 12.984189,
    "lng": 77.47923,
    "priority_rank": 125,
    "violation_count": 49,
    "latent_rate": 61.915,
    "priority_score": 0.206,
    "congestion_ratio": 1.44,
    "road_weight": 0.444,
    "blindspot": false,
    "locality": "Doddagollarahatti",
    "ward_name": "Doddagollarahatti",
    "ward_no": "31"
  },
  {
    "lat": 12.92194,
    "lng": 77.564782,
    "priority_rank": 126,
    "violation_count": 3,
    "latent_rate": 76.098,
    "priority_score": 0.206,
    "congestion_ratio": 1.27,
    "road_weight": 0.267,
    "blindspot": false,
    "locality": "Ganesh Mandir ward",
    "ward_name": "Ganesh Mandir ward",
    "ward_no": "202"
  },
  {
    "lat": 12.953863,
    "lng": 77.605028,
    "priority_rank": 127,
    "violation_count": 8,
    "latent_rate": 52.95,
    "priority_score": 0.205,
    "congestion_ratio": 1.6,
    "road_weight": 0.6,
    "blindspot": false,
    "locality": "Shanthi Nagar",
    "ward_name": "Shanthi Nagar",
    "ward_no": "182"
  },
  {
    "lat": 12.83916,
    "lng": 77.677125,
    "priority_rank": 128,
    "violation_count": 337,
    "latent_rate": 53.436,
    "priority_score": 0.204,
    "congestion_ratio": 1.58,
    "road_weight": 0.584,
    "blindspot": false,
    "locality": "Outside BBMP",
    "ward_name": "Outside BBMP",
    "ward_no": "nan"
  },
  {
    "lat": 12.955633,
    "lng": 77.703816,
    "priority_rank": 129,
    "violation_count": 256,
    "latent_rate": 60.794,
    "priority_score": 0.204,
    "congestion_ratio": 1.45,
    "road_weight": 0.451,
    "blindspot": false,
    "locality": "Marathahalli",
    "ward_name": "Marathahalli",
    "ward_no": "114"
  },
  {
    "lat": 13.053609,
    "lng": 77.482174,
    "priority_rank": 130,
    "violation_count": 12,
    "latent_rate": 46.577,
    "priority_score": 0.204,
    "congestion_ratio": 1.74,
    "road_weight": 0.741,
    "blindspot": false,
    "locality": "Outside BBMP",
    "ward_name": "Outside BBMP",
    "ward_no": "nan"
  },
  {
    "lat": 13.046926,
    "lng": 77.581917,
    "priority_rank": 131,
    "violation_count": 7,
    "latent_rate": 53.736,
    "priority_score": 0.203,
    "congestion_ratio": 1.57,
    "road_weight": 0.569,
    "blindspot": false,
    "locality": "Kempapura",
    "ward_name": "Kempapura",
    "ward_no": "10"
  },
  {
    "lat": 12.9314,
    "lng": 77.608862,
    "priority_rank": 132,
    "violation_count": 254,
    "latent_rate": 66.941,
    "priority_score": 0.202,
    "congestion_ratio": 1.36,
    "road_weight": 0.356,
    "blindspot": false,
    "locality": "Suddagunte Palya",
    "ward_name": "Suddagunte Palya",
    "ward_no": "189"
  },
  {
    "lat": 12.979352,
    "lng": 77.652418,
    "priority_rank": 133,
    "violation_count": 94,
    "latent_rate": 61.75,
    "priority_score": 0.201,
    "congestion_ratio": 1.42,
    "road_weight": 0.424,
    "blindspot": false,
    "locality": "Old Thippasandra",
    "ward_name": "Old Thippasandra",
    "ward_no": "121"
  },
  {
    "lat": 12.980159,
    "lng": 77.722919,
    "priority_rank": 134,
    "violation_count": 8,
    "latent_rate": 72.469,
    "priority_score": 0.201,
    "congestion_ratio": 1.29,
    "road_weight": 0.286,
    "blindspot": false,
    "locality": "Hudi",
    "ward_name": "Hudi",
    "ward_no": "106"
  },
  {
    "lat": 13.202758,
    "lng": 77.661647,
    "priority_rank": 135,
    "violation_count": 6,
    "latent_rate": 48.432,
    "priority_score": 0.199,
    "congestion_ratio": 1.67,
    "road_weight": 0.667,
    "blindspot": false,
    "locality": "Outside BBMP",
    "ward_name": "Outside BBMP",
    "ward_no": "nan"
  },
  {
    "lat": 13.096049,
    "lng": 77.594782,
    "priority_rank": 136,
    "violation_count": 42,
    "latent_rate": 55.437,
    "priority_score": 0.199,
    "congestion_ratio": 1.52,
    "road_weight": 0.517,
    "blindspot": false,
    "locality": "Yelahanka Satellite Town",
    "ward_name": "Yelahanka Satellite Town",
    "ward_no": "5"
  },
  {
    "lat": 13.14301,
    "lng": 77.618457,
    "priority_rank": 137,
    "violation_count": 106,
    "latent_rate": 53.813,
    "priority_score": 0.198,
    "congestion_ratio": 1.54,
    "road_weight": 0.542,
    "blindspot": false,
    "locality": "Outside BBMP",
    "ward_name": "Outside BBMP",
    "ward_no": "nan"
  },
  {
    "lat": 12.997859,
    "lng": 77.552214,
    "priority_rank": 138,
    "violation_count": 1429,
    "latent_rate": 66.373,
    "priority_score": 0.197,
    "congestion_ratio": 1.34,
    "road_weight": 0.343,
    "blindspot": false,
    "locality": "Rajaji Nagar",
    "ward_name": "Rajaji Nagar",
    "ward_no": "141"
  },
  {
    "lat": 12.910151,
    "lng": 77.573607,
    "priority_rank": 139,
    "violation_count": 193,
    "latent_rate": 59.086,
    "priority_score": 0.195,
    "congestion_ratio": 1.44,
    "road_weight": 0.436,
    "blindspot": false,
    "locality": "Sarakki",
    "ward_name": "Sarakki",
    "ward_no": "199"
  },
  {
    "lat": 13.198388,
    "lng": 77.700153,
    "priority_rank": 140,
    "violation_count": 9,
    "latent_rate": 41.869,
    "priority_score": 0.194,
    "congestion_ratio": 1.81,
    "road_weight": 0.815,
    "blindspot": false,
    "locality": "Outside BBMP",
    "ward_name": "Outside BBMP",
    "ward_no": "nan"
  },
  {
    "lat": 13.05207,
    "lng": 77.647632,
    "priority_rank": 141,
    "violation_count": 5,
    "latent_rate": 57.572,
    "priority_score": 0.194,
    "congestion_ratio": 1.46,
    "road_weight": 0.456,
    "blindspot": false,
    "locality": "Outside BBMP",
    "ward_name": "Outside BBMP",
    "ward_no": "nan"
  },
  {
    "lat": 12.958271,
    "lng": 77.566592,
    "priority_rank": 142,
    "violation_count": 123,
    "latent_rate": 55.197,
    "priority_score": 0.193,
    "congestion_ratio": 1.49,
    "road_weight": 0.491,
    "blindspot": false,
    "locality": "Chamrajapet",
    "ward_name": "Chamrajapet",
    "ward_no": "165"
  },
  {
    "lat": 12.970269,
    "lng": 77.490421,
    "priority_rank": 143,
    "violation_count": 2,
    "latent_rate": 58.52,
    "priority_score": 0.193,
    "congestion_ratio": 1.43,
    "road_weight": 0.433,
    "blindspot": false,
    "locality": "Doddagollarahatti",
    "ward_name": "Doddagollarahatti",
    "ward_no": "31"
  },
  {
    "lat": 13.026642,
    "lng": 77.574957,
    "priority_rank": 144,
    "violation_count": 258,
    "latent_rate": 70.836,
    "priority_score": 0.192,
    "congestion_ratio": 1.27,
    "road_weight": 0.267,
    "blindspot": false,
    "locality": "Aramane Nagara",
    "ward_name": "Aramane Nagara",
    "ward_no": "60"
  },
  {
    "lat": 13.00614,
    "lng": 77.63541,
    "priority_rank": 145,
    "violation_count": 8,
    "latent_rate": 70.843,
    "priority_score": 0.192,
    "congestion_ratio": 1.27,
    "road_weight": 0.267,
    "blindspot": false,
    "locality": "Kammanahalli",
    "ward_name": "Kammanahalli",
    "ward_no": "101"
  },
  {
    "lat": 13.070782,
    "lng": 77.446391,
    "priority_rank": 146,
    "violation_count": 3,
    "latent_rate": 48.529,
    "priority_score": 0.191,
    "congestion_ratio": 1.62,
    "road_weight": 0.615,
    "blindspot": false,
    "locality": "Outside BBMP",
    "ward_name": "Outside BBMP",
    "ward_no": "nan"
  },
  {
    "lat": 13.061032,
    "lng": 77.503341,
    "priority_rank": 147,
    "violation_count": 4,
    "latent_rate": 70.222,
    "priority_score": 0.19,
    "congestion_ratio": 1.27,
    "road_weight": 0.267,
    "blindspot": false,
    "locality": "Bagalakunte",
    "ward_name": "Bagalakunte",
    "ward_no": "18"
  },
  {
    "lat": 12.907746,
    "lng": 77.643373,
    "priority_rank": 148,
    "violation_count": 36,
    "latent_rate": 62.699,
    "priority_score": 0.19,
    "congestion_ratio": 1.36,
    "road_weight": 0.358,
    "blindspot": false,
    "locality": "Agara",
    "ward_name": "Agara",
    "ward_no": "230"
  },
  {
    "lat": 13.035144,
    "lng": 77.590748,
    "priority_rank": 149,
    "violation_count": 1754,
    "latent_rate": 69.781,
    "priority_score": 0.19,
    "congestion_ratio": 1.27,
    "road_weight": 0.27,
    "blindspot": false,
    "locality": "Hebbala",
    "ward_name": "Hebbala",
    "ward_no": "70"
  },
  {
    "lat": 13.052527,
    "lng": 77.487568,
    "priority_rank": 150,
    "violation_count": 44,
    "latent_rate": 48.643,
    "priority_score": 0.189,
    "congestion_ratio": 1.6,
    "road_weight": 0.603,
    "blindspot": false,
    "locality": "Outside BBMP",
    "ward_name": "Outside BBMP",
    "ward_no": "nan"
  }
]